$GPGSV,3,2,11,18,57,079,45,19,36,301,39,21,30,068,,22,61,146,45*72
$GPGSV,3,3,11,26,12,039,,27,02,314,,29,06,024,,,,,*4E
$GPRMC,093451,A,4729.2787,N,01904.7851,E,000.0,000.0,310305,002.9,E*76
$GPGGA,093451,4729.2787,N,01904.7851,E,1,05,2.9,107.8,M,41.0,M,,*48
$GPGSA,A,3,03,,15,16,18,,,22,,,,,4.2,2.9,1.0*37
$GPGSV,3,1,11,03,64,294,38,08,03,335,,15,74,046,44,16,35,202,38*7F
$GPGSV,3,2,11,18,57,079,44,19,36,301,38,21,30,068,,22,61,146,44*73
$GPGSV,3,3,11,26,12,039,,27,02,314,,29,06,024,,,,,*4E
$GPRMC,093452,A,4729.2791,N,01904.7853,E,000.0,000.0,310305,002.9,E*70
$GPGGA,093452,4729.2791,N,01904.7853,E,1,05,4.6,107.9,M,41.0,M,,*46
$GPGSA,A,3,03,,15,16,18,,,22,,,,,5.8,4.6,1.0*35
$GPGSV,3,1,11,03,64,294,41,08,03,335,,15,74,046,44,16,35,202,38*71
$GPGSV,3,2,11,18,57,079,44,19,36,301,38,21,30,068,,22,61,146,43*74
$GPGSV,3,3,11,26,12,039,,27,02,314,,29,06,024,,,,,*4E
$GPRMC,093453,A,4729.2789,N,01904.7853,E,000.0,000.0,310305,002.9,E*78
$GPGGA,093453,4729.2789,N,01904.7853,E,1,05,4.6,107.9,M,41.0,M,,*4E
$GPGSA,A,3,03,,15,16,18,,,22,,,,,5.8,4.6,1.0*35
$GPGSV,3,1,11,03,64,294,40,08,03,335,,15,74,046,43,16,35,202,37*78
$GPGSV,3,2,11,18,57,079,44,19,36,301,38,21,30,068,,22,61,146,42*75
$GPGSV,3,3,11,26,12,037,,27,02,314,,29,06,024,,,,,*40
$GPRMC,093454,A,4729.2753,N,01904.7844,E,001.1,000.0,310305,002.9,E*7E
$PGRMT,GPS 25-LVS VER 2.50 ,P,P,R,R,P,,27,R*08
$GPGGA,093454,4729.2753,N,01904.7844,E,1,05,6.2,107.9,M,41.0,M,,*4E
$GPGSA,A,3,03,,15,16,18,,,22,,,,,7.2,6.2,1.0*3B
$GPGSV,3,1,11,03,64,294,38,08,03,335,,15,74,046,44,16,35,202,37*70
$GPGSV,3,2,11,18,57,079,43,19,36,301,39,21,30,068,,22,61,146,41*70
$GPGSV,3,3,11,26,12,037,,27,02,314,,29,06,024,,,,,*40
$GPRMC,093455,A,4729.2751,N,01904.7844,E,001.0,000.0,310305,002.9,E*7C
$GPGGA,093455,4729.2751,N,01904.7844,E,1,05,2.8,106.8,M,41.0,M,,*43
$GPGSA,A,3,03,,15,16,18,,,22,,,,,7.9,2.8,2.2*3F
$GPGSV,3,1,11,03,64,294,39,08,03,335,,15,74,046,45,16,35,202,36*71
$GPGSV,3,2,11,18,57,079,44,19,36,301,38,21,30,068,,22,61,146,43*74
$GPGSV,3,3,11,26,12,037,,27,02,314,,29,06,024,,,,,*40
$GPRMC,093456,A,4729.2753,N,01904.7843,E,000.9,000.0,310305,002.9,E*72
$GPGGA,093456,4729.2753,N,01904.7843,E,1,05,2.6,106.7,M,41.0,M,,*44
$GPGSA,A,3,03,,15,16,18,,,22,,,,,2.6,2.6,1.0*3A
$GPGSV,3,1,11,03,64,294,41,08,03,335,,15,74,046,46,16,35,202,38*73
$GPGSV,3,2,11,18,57,079,44,19,36,301,38,21,30,068,,22,61,146,43*74
$GPGSV,3,3,11,26,12,037,,27,02,314,,29,06,024,,,,,*40
$GPRMC,093457,A,4729.2754,N,01904.7843,E,000.0,000.0,310305,002.9,E*7D
$GPGGA,093457,4729.2754,N,01904.7843,E,1,05,2.6,106.2,M,41.0,M,,*47
$GPGSA,A,3,03,,15,16,18,,,22,,,,,2.6,2.6,1.0*3A
$GPGSV,3,1,11,03,64,294,42,08,03,335,,15,74,046,46,16,35,202,37*7F
$GPGSV,3,2,11,18,57,079,44,19,36,301,37,21,30,068,,22,61,146,43*7B
$GPGSV,3,3,11,26,12,037,,27,02,314,,29,06,024,,,,,*40
$GPRMC,093458,A,4729.2754,N,01904.7842,E,000.0,000.0,310305,002.9,E*73
$GPGGA,093458,4729.2754,N,01904.7842,E,1,05,3.1,105.3,M,41.0,M,,*4D
$GPGSA,A,3,03,,15,16,18,,,22,,,,,4.3,3.1,2.6*3A
$GPGSV,3,1,11,03,64,294,43,08,03,335,,15,74,046,45,16,35,202,40*7D
$GPGSV,3,2,11,18,57,079,45,19,36,301,36,21,30,068,,22,61,146,42*7A
$GPGSV,3,3,11,26,12,037,,27,02,313,,29,06,024,,,,,*47
$GPRMC,093459,A,4729.2753,N,01904.7842,E,000.0,000.0,310305,002.9,E*75
$GPGGA,093459,4729.2753,N,01904.7842,E,1,05,2.6,105.5,M,41.0,M,,*4B
$GPGSA,A,3,03,,15,16,18,,,22,,,,,4.5,2.6,3.0*3D
$GPGSV,3,1,11,03,64,294,42,08,03,335,,15,74,046,45,16,35,202,40*7C
$GPGSV,3,2,11,18,57,079,44,19,36,301,36,21,30,068,,22,61,146,42*7B
$GPGSV,3,3,11,26,12,037,,27,02,313,,29,06,024,,,,,*47
$GPRMC,093500,A,4729.2754,N,01904.7842,E,000.0,000.0,310305,002.9,E*7F
$GPGGA,093500,4729.2754,N,01904.7842,E,1,05,2.7,105.6,M,41.0,M,,*43
$GPGSA,A,3,03,,15,16,18,,,22,,,,,4.8,2.7,3.4*35
$GPGSV,3,1,11,03,64,294,42,08,03,335,,15,74,046,45,16,35,202,41*7D
$GPGSV,3,2,11,18,57,079,44,19,36,301,35,21,30,068,,22,61,146,43*79
$GPGSV,3,3,11,26,12,037,,27,02,313,,29,06,024,,,,,*47
$GPRMC,093501,A,4729.2752,N,01904.7841,E,000.0,000.0,310305,002.9,E*7B
$GPGGA,093501,4729.2752,N,01904.7841,E,1,05,2.7,105.7,M,41.0,M,,*46
$GPGSA,A,3,03,,15,16,18,,,22,,,,,4.8,2.7,3.4*35
$GPGSV,3,1,11,03,64,294,41,08,03,335,,15,74,046,44,16,35,202,40*7E
$GPGSV,3,2,11,18,57,079,43,19,36,301,35,21,30,068,,22,61,146,42*7F
$GPGSV,3,3,11,26,12,037,,27,02,313,,29,06,024,,,,,*47
$GPRMC,093502,A,4729.2749,N,01904.7841,E,000.0,000.0,310305,002.9,E*72
$GPGGA,093502,4729.2749,N,01904.7841,E,6,05,2.7,105.7,M,41.0,M,,*48
$GPGSA,A,3,03,,15,16,18,,,22,,,,,4.8,2.7,3.4*35
$GPGSV,3,1,11,03,64,294,40,08,03,335,,15,74,046,43,16,35,202,39*76
$GPGSV,3,2,11,18,57,079,42,19,36,301,34,21,30,068,,22,61,146,41*7C
$GPGSV,3,3,11,26,12,037,,27,02,313,,29,06,024,,,,,*47
$GPRMC,093503,A,4729.2747,N,01904.7841,E,000.0,000.0,310305,002.9,E*7D
$GPGGA,093503,4729.2747,N,01904.7841,E,6,05,2.7,105.8,M,41.0,M,,*48
$GPGSA,A,3,03,,15,16,18,,,22,,,,,4.8,2.7,3.4*35
$GPGSV,3,1,11,03,64,294,40,08,03,335,,15,74,046,42,16,35,202,39*77
$GPGSV,3,2,11,18,57,079,41,19,36,301,36,21,30,068,,22,61,146,41*7D
$GPGSV,3,3,11,26,12,037,,27,02,313,,29,06,024,,,,,*47
$GPRMC,093504,A,4729.2746,N,01904.7839,E,000.0,000.0,310305,002.9,E*74
$GPGGA,093504,4729.2746,N,01904.7839,E,1,05,2.8,105.8,M,41.0,M,,*49
$GPGSA,A,3,03,,15,16,18,,,22,,,,,3.5,2.8,1.0*36
$GPGSV,3,1,11,03,64,294,40,08,03,335,,15,74,046,42,16,35,202,38*76
$GPGSV,3,2,11,18,57,079,40,19,36,301,37,21,30,068,,22,61,146,41*7D
$GPGSV,3,3,11,26,12,037,,27,02,313,,29,06,024,,,,,*47
$GPRMC,093505,A,4729.2743,N,01904.7839,E,000.0,000.0,310305,002.9,E*70
$GPGGA,093505,4729.2743,N,01904.7839,E,1,05,2.8,105.8,M,41.0,M,,*4D
$GPGSA,A,3,03,,15,16,18,,,22,,,,,3.5,2.8,1.0*36
$GPGSV,3,1,11,03,64,294,39,08,03,335,,15,74,046,41,16,35,202,37*74
$GPGSV,3,2,11,18,57,079,40,19,36,301,36,21,30,068,,22,61,146,40*7D
$GPGSV,3,3,11,26,12,037,,27,02,313,,29,06,024,,,,,*47
$GPRMC,093506,A,4729.2742,N,01904.7832,E,000.0,000.0,310305,002.9,E*79
$GPGGA,093506,4729.2742,N,01904.7832,E,1,05,2.8,104.0,M,41.0,M,,*4D
$GPGSA,A,3,03,,15,16,18,,,22,,,,,4.5,2.8,2.2*30
$GPGSV,3,1,11,03,64,294,39,08,03,335,,15,74,046,44,16,35,202,37*71
$GPGSV,3,2,11,18,57,079,42,19,36,301,36,21,30,068,,22,61,146,42*7D
$GPGSV,3,3,11,26,12,037,,27,02,313,,29,06,024,,,,,*47
$GPRMC,093507,A,4729.2742,N,01904.7831,E,000.0,000.0,310305,002.9,E*7B
$GPGGA,093507,4729.2742,N,01904.7831,E,1,05,3.0,103.7,M,41.0,M,,*46
$GPGSA,A,3,03,,15,16,18,,,22,,,,,4.5,3.0,1.0*38
$GPGSV,3,1,11,03,64,294,40,08,03,335,,15,74,046,45,16,35,202,36*7F
$GPGSV,3,2,11,18,57,079,43,19,36,301,37,21,30,068,,22,61,146,44*7B
$GPGSV,3,3,11,26,12,037,,27,02,313,,29,05,023,,,,,*43
$GPRMC,093508,A,4729.2741,N,01904.7831,E,000.0,000.0,310305,002.9,E*77
$GPGGA,093508,4729.2741,N,01904.7831,E,6,05,3.0,103.7,M,41.0,M,,*4D
$GPGSA,A,3,03,,15,16,18,,,22,,,,,4.5,3.0,1.0*38
$GPGSV,3,1,11,03,64,294,40,08,03,335,,15,74,046,44,16,35,202,35*7D
$GPGSV,3,2,11,18,57,079,43,19,36,301,36,21,30,068,,22,61,146,43*7D
$GPGSV,3,3,11,26,12,037,,27,02,313,,29,05,023,,,,,*43
$GPRMC,093509,A,4729.2738,N,01904.7831,E,000.0,000.0,310305,002.9,E*78
$GPGGA,093509,4729.2738,N,01904.7831,E,6,05,3.0,103.6,M,41.0,M,,*43
$GPGSA,A,3,03,,15,,18,,,22,,,,,4.5,3.0,1.0*3F
$GPGSV,3,1,11,03,64,294,39,08,03,335,,15,74,046,43,16,35,202,35*74
$GPGSV,3,2,11,18,57,079,42,19,36,301,35,21,30,068,,22,61,146,42*7E
$GPGSV,3,3,11,26,12,037,,27,02,313,,29,05,023,,,,,*43
$GPRMC,093510,A,4729.2738,N,01904.7831,E,000.0,000.0,310305,002.9,E*70
$GPGGA,093510,4729.2738,N,01904.7831,E,6,04,3.0,103.6,M,41.0,M,,*4A
$GPGSA,A,3,03,,15,,18,,,22,,,,,4.5,3.0,1.0*3F
$GPGSV,3,1,11,03,64,294,38,08,03,335,,15,74,046,42,16,35,202,34*75
$GPGSV,3,2,11,18,57,079,41,19,36,301,35,21,30,068,,22,61,146,41*7E
$GPGSV,3,3,11,26,12,037,,27,02,313,,29,05,023,,,,,*43
$GPRMC,093511,A,4729.2737,N,01904.7831,E,000.0,000.0,310305,002.9,E*7E
$GPGGA,093511,4729.2737,N,01904.7831,E,6,04,3.0,103.6,M,41.0,M,,*44
$GPGSA,A,3,03,,15,,18,,,22,,,,,4.5,3.0,1.0*3F
$GPGSV,3,1,11,03,64,294,36,08,03,335,,15,74,046,41,16,35,202,33*7F
$GPGSV,3,2,11,18,57,079,39,19,36,301,34,21,30,068,,22,61,146,39*7F
$GPGSV,3,3,11,26,12,037,,27,02,313,,29,05,023,,,,,*43
$GPRMC,093513,A,4729.2734,N,01904.7831,E,000.0,000.0,310305,002.9,E*7F
$GPGGA,093513,4729.2734,N,01904.7831,E,6,04,3.0,103.6,M,41.0,M,,*45
$GPGSA,A,3,03,,15,,18,,,22,,,,,4.5,3.0,1.0*3F
$GPGSV,3,1,11,03,64,294,36,08,03,335,,15,74,046,40,16,35,202,33*7E
$GPGSV,3,2,11,18,57,079,39,19,36,301,33,21,30,068,,22,61,146,39*78
$GPGSV,3,3,11,26,12,037,,27,02,313,,29,05,023,,,,,*43
$GPRMC,093514,A,4729.2733,N,01904.7831,E,000.0,000.0,310305,002.9,E*7F
$GPGGA,093514,4729.2733,N,01904.7831,E,6,04,3.0,103.6,M,41.0,M,,*45
$GPGSA,A,3,03,,15,,18,,,22,,,,,4.5,3.0,1.0*3F
$GPGSV,3,1,11,03,64,294,35,08,03,335,,15,74,046,39,16,35,202,33*73
$GPGSV,3,2,11,18,57,079,38,19,36,301,33,21,30,068,,22,61,146,38*78
$GPGSV,3,3,11,26,12,037,,27,02,313,,29,05,023,,,,,*43
$GPRMC,093515,A,4729.2732,N,01904.7831,E,000.0,000.0,310305,002.9,E*7F
$GPGGA,093515,4729.2732,N,01904.7831,E,6,04,3.0,103.6,M,41.0,M,,*45
$GPGSA,A,3,03,,15,,18,,,22,,,,,4.5,3.0,1.0*3F
$GPGSV,3,1,11,03,64,294,35,08,03,335,,15,74,046,38,16,35,202,33*72
$GPGSV,3,2,11,18,57,079,37,19,36,301,33,21,30,068,,22,61,146,37*78
$GPGSV,3,3,11,26,12,037,,27,02,313,,29,05,023,,,,,*43
$GPRMC,093516,A,4729.2731,N,01904.7830,E,000.0,000.0,310305,002.9,E*7E
$GPGGA,093516,4729.2731,N,01904.7830,E,6,04,3.0,103.6,M,41.0,M,,*44
$GPGSA,A,3,,,,,,,,,,,,,4.5,3.0,1.0*31
$GPGSV,3,1,11,03,64,294,34,08,03,335,,15,74,046,38,16,35,202,33*73
$GPGSV,3,2,11,18,57,079,37,19,36,301,32,21,30,068,,22,61,146,37*79
$GPGSV,3,3,11,26,12,037,,27,02,313,,29,05,023,,,,,*43
$GPRMC,093517,A,4729.2729,N,01904.7830,E,000.0,000.0,310305,002.9,E*76
$GPGGA,093517,4729.2729,N,01904.7830,E,6,00,3.0,103.6,M,41.0,M,,*48
$GPGSA,A,3,,,,,,,,,,,,,4.5,3.0,1.0*31
$GPGSV,3,1,11,03,64,294,34,08,03,335,,15,74,046,37,16,35,202,33*7C
$GPGSV,3,2,11,18,57,079,36,19,36,301,32,21,30,068,,22,61,146,36*79
$GPGSV,3,3,11,26,12,037,,27,02,313,,29,05,023,,,,,*43
$GPRMC,093519,A,4729.2727,N,01904.7830,E,000.0,000.0,310305,002.9,E*76
$GPGGA,093519,4729.2727,N,01904.7830,E,6,00,3.0,103.6,M,41.0,M,,*48
$GPGSA,A,3,,,,,,,,,,,,,4.5,3.0,1.0*31
$GPGSV,3,1,11,03,64,294,34,08,03,335,,15,74,046,37,16,35,202,32*7D
$GPGSV,3,2,11,18,57,079,36,19,36,301,32,21,30,068,,22,61,146,36*79
$GPGSV,3,3,11,26,12,037,,27,02,313,,29,05,023,,,,,*43
$GPRMC,093520,A,4729.2725,N,01904.7830,E,000.0,000.0,310305,002.9,E*7E
$GPGGA,093520,4729.2725,N,01904.7830,E,6,00,3.0,103.6,M,41.0,M,,*40
$GPGSA,A,3,,,,,,,,,,,,,4.5,3.0,1.0*31
$GPGSV,3,1,11,03,64,294,33,08,03,335,,15,74,046,36,16,35,202,32*7B
$GPGSV,3,2,11,18,57,079,35,19,36,301,31,21,30,068,,22,61,146,35*7A
$GPGSV,3,3,11,26,12,037,,27,02,313,,29,05,023,,,,,*43
$GPRMC,093521,A,4729.2724,N,01904.7830,E,000.0,000.0,310305,002.9,E*7E
$GPGGA,093521,4729.2724,N,01904.7830,E,6,00,3.0,103.5,M,41.0,M,,*43
$GPGSA,A,3,,,,,,,,,,,,,4.5,3.0,1.0*31
$GPGSV,3,1,11,03,64,294,33,08,03,335,,15,74,046,36,16,35,202,32*7B
$GPGSV,3,2,11,18,57,079,35,19,36,301,31,21,30,068,,22,61,146,35*7A
$GPGSV,3,3,11,26,12,037,,27,02,313,,29,05,023,,,,,*43
$GPRMC,093522,A,4729.2723,N,01904.7830,E,000.0,000.0,310305,002.9,E*7A
$GPGGA,093522,4729.2723,N,01904.7830,E,6,00,3.0,103.5,M,41.0,M,,*47
$GPGSA,A,3,,,,,,,,,,,,,4.5,3.0,1.0*31
$GPGSV,3,1,11,03,64,294,32,08,03,335,,15,74,046,35,16,35,202,31*7A
$GPGSV,3,2,11,18,57,079,34,19,36,301,31,21,30,068,,22,61,146,34*7A
$GPGSV,3,3,11,26,12,037,,27,02,313,,29,05,023,,,,,*43
$GPRMC,093524,A,4729.2720,N,01904.7830,E,000.0,000.0,310305,002.9,E*7F
$GPGGA,093524,4729.2720,N,01904.7830,E,6,00,3.0,103.5,M,41.0,M,,*42
$GPGSA,A,3,,,,,,,,,,,,,4.5,3.0,1.0*31
$GPGSV,3,1,11,03,64,294,32,08,03,335,,15,74,046,34,16,35,202,31*7B
$GPGSV,3,2,11,18,57,079,33,19,36,301,31,21,30,068,,22,61,146,33*7A
$GPGSV,3,3,11,26,12,037,,27,02,313,,29,05,023,,,,,*43
$GPRMC,093524,A,4729.2719,N,01904.7830,E,000.0,000.0,310305,002.9,E*75
$GPGGA,093524,4729.2719,N,01904.7830,E,6,00,3.0,103.5,M,41.0,M,,*48
$GPGSA,A,3,,,,,,,,,,,,,4.5,3.0,1.0*31
$GPGSV,3,1,11,03,64,294,37,08,03,335,,15,74,046,42,16,35,202,37*79
$GPGSV,3,2,11,18,57,079,40,19,36,301,31,21,30,068,,22,61,146,39*74
$GPGSV,3,3,11,26,12,037,,27,02,313,,29,05,023,,,,,*43
$GPRMC,093525,A,4729.2722,N,01904.7830,E,000.0,000.0,310305,002.9,E*7C
$GPGGA,093525,4729.2722,N,01904.7830,E,1,00,2.6,101.9,M,41.0,M,,*4F
$GPGSA,A,3,03,,15,16,18,,,22,,,,,4.7,2.6,1.5*38
$GPGSV,3,1,11,03,64,294,38,08,03,335,,15,74,046,44,16,35,202,38*7F
$GPGSV,3,2,11,18,57,079,42,19,36,301,31,21,30,068,,22,61,146,40*78
$GPGSV,3,3,11,26,12,037,,27,02,313,,29,05,023,,,,,*43
$GPRMC,093526,A,4729.2725,N,01904.7831,E,000.0,000.0,310305,002.9,E*79
$GPGGA,093526,4729.2725,N,01904.7831,E,1,05,2.6,102.0,M,41.0,M,,*45
$GPGSA,A,3,03,,15,16,18,,,22,,,,,2.7,2.6,1.0*3B
$GPGSV,3,1,11,03,64,294,39,08,03,335,,15,74,046,44,16,35,202,38*7E
$GPGSV,3,2,11,18,57,079,43,19,36,301,31,21,30,068,,22,61,146,41*78
$GPGSV,3,3,11,26,12,037,,27,02,313,,29,05,023,,,,,*43
$GPRMC,093527,A,4729.2727,N,01904.7832,E,000.0,000.0,310305,002.9,E*79
$GPGGA,093527,4729.2727,N,01904.7832,E,1,05,2.6,102.7,M,41.0,M,,*42
$GPGSA,A,3,03,,15,16,18,,,22,,,,,2.7,2.6,1.0*3B
$GPGSV,3,1,11,03,64,294,39,08,03,335,,15,74,046,44,16,35,202,38*7E
$GPGSV,3,2,11,18,57,079,43,19,36,301,31,21,30,068,,22,61,146,41*78
$GPGSV,3,3,11,26,12,037,,27,02,313,,29,05,023,,,,,*43
$GPRMC,093528,A,4729.2729,N,01904.7835,E,000.0,000.0,310305,002.9,E*7F
$GPGGA,093528,4729.2729,N,01904.7835,E,1,05,2.6,103.8,M,41.0,M,,*4A
$GPGSA,A,3,03,,15,16,18,,,22,,,,,2.7,2.6,1.0*3B
$GPGSV,3,1,11,03,64,294,40,08,03,335,,15,74,046,44,16,35,202,37*7F
$GPGSV,3,2,11,18,57,079,43,19,36,301,31,21,30,068,,22,61,146,42*7B
$GPGSV,3,3,11,26,12,037,,27,02,313,,29,05,023,,,,,*43
$GPRMC,093529,A,4729.2730,N,01904.7834,E,000.0,000.0,310305,002.9,E*77
$GPGGA,093529,4729.2730,N,01904.7834,E,1,05,2.8,103.8,M,41.0,M,,*4C
$GPGSA,A,3,03,,15,16,18,,,22,,,,,2.9,2.8,1.0*3B
$GPGSV,3,1,11,03,64,294,39,08,03,335,,15,74,046,43,16,35,202,36*77
$GPGSV,3,2,11,18,57,079,43,19,36,301,31,21,30,068,,22,61,146,42*7B
$GPGSV,3,3,11,26,12,037,,27,02,313,,29,05,023,,,,,*43
$GPRMC,093530,A,4729.2730,N,01904.7835,E,000.0,000.0,310305,002.9,E*7E
$GPGGA,093530,4729.2730,N,01904.7835,E,1,05,2.9,104.3,M,41.0,M,,*48
$GPGSA,A,3,03,,15,16,18,,,22,,,,,3.3,2.9,1.5*34
$GPGSV,3,1,11,03,64,294,37,08,03,335,,15,74,046,41,16,35,202,36*7B
$GPGSV,3,2,11,18,57,079,41,19,36,301,31,21,30,068,,22,61,146,40*7B
$GPGSV,3,3,11,26,12,037,,27,02,313,,29,05,023,,,,,*43
$GPRMC,093531,A,4729.2729,N,01904.7835,E,000.0,000.0,310305,002.9,E*77
$GPGGA,093531,4729.2729,N,01904.7835,E,1,05,2.9,104.3,M,41.0,M,,*41
$GPGSA,A,3,03,,15,16,18,,,22,,,,,3.3,2.9,1.5*34
$GPGSV,3,1,11,03,64,294,37,08,03,335,,15,74,046,40,16,35,202,36*7A
$GPGSV,3,2,11,18,57,079,40,19,36,301,31,21,30,068,,22,61,146,40*7A
$GPGSV,3,3,11,26,12,037,,27,02,313,,29,05,023,,,,,*43
$GPRMC,093532,A,4729.2727,N,01904.7836,E,000.0,000.0,310305,002.9,E*79
$GPGGA,093532,4729.2727,N,01904.7836,E,6,05,2.9,104.2,M,41.0,M,,*49
$GPGSA,A,3,03,,15,16,18,,,22,,,,,3.3,2.9,1.5*34
$GPGSV,3,1,11,03,64,294,36,08,03,335,,15,74,046,39,16,35,202,35*76
$GPGSV,3,2,11,18,57,079,39,19,36,301,31,21,30,068,,22,61,146,39*7A
$GPGSV,3,3,11,26,12,037,,27,02,313,,29,05,023,,,,,*43
$GPRMC,093533,A,4729.2726,N,01904.7836,E,000.0,000.0,310305,002.9,E*79
$GPGGA,093533,4729.2726,N,01904.7836,E,6,05,2.9,104.1,M,41.0,M,,*4A
$GPGSA,A,3,03,,15,16,18,,,22,,,,,3.3,2.9,1.5*34
$GPGSV,3,1,11,03,64,294,36,08,03,335,,15,74,046,38,16,35,202,35*77
$GPGSV,3,2,11,18,57,079,38,19,36,301,31,21,30,068,,22,61,146,38*7A
$GPGSV,3,3,11,26,12,037,,27,02,313,,29,05,023,,,,,*43
$GPRMC,093534,A,4729.2726,N,01904.7836,E,000.0,000.0,310305,002.9,E*7E
$GPGGA,093534,4729.2726,N,01904.7836,E,6,05,2.9,104.1,M,41.0,M,,*4D
$GPGSA,A,3,03,,15,16,18,,,22,,,,,3.3,2.9,1.5*34
$GPGSV,3,1,11,03,64,294,35,08,03,335,,15,74,046,37,16,35,202,36*78
$GPGSV,3,2,11,18,57,079,37,19,36,301,31,21,30,068,,22,61,146,38*75
$GPGSV,3,3,11,26,12,037,,27,02,313,,29,05,023,,,,,*43
$GPRMC,093535,A,4729.2726,N,01904.7836,E,000.0,000.0,310305,002.9,E*7F
$GPGGA,093535,4729.2726,N,01904.7836,E,1,05,2.6,105.3,M,41.0,M,,*47
$GPGSA,A,3,03,,15,16,18,,,22,,,,,3.7,2.6,2.0*39
$GPGSV,3,1,11,03,64,294,35,08,03,335,,15,74,046,37,16,35,202,36*78
$GPGSV,3,2,11,18,57,079,37,19,36,301,31,21,30,068,,22,61,146,38*75
$GPGSV,3,3,11,26,12,037,,27,02,313,,29,05,023,,,,,*43
$GPRMC,093537,A,4729.2726,N,01904.7839,E,000.0,000.0,310305,002.9,E*72
$GPGGA,093537,4729.2726,N,01904.7839,E,1,05,2.9,105.2,M,41.0,M,,*44
$GPGSA,A,3,03,,15,16,18,,,22,,,,,3.7,2.9,1.0*35
$GPGSV,3,1,11,03,64,294,34,08,03,335,,15,74,046,38,16,35,202,36*76
$GPGSV,3,2,11,18,57,079,36,19,36,301,31,21,30,068,,22,61,146,38*74
$GPGSV,3,3,11,26,12,037,,27,02,313,,29,05,023,,,,,*43
$GPRMC,093538,A,4729.2704,N,01904.7840,E,000.0,000.0,310305,002.9,E*73
$GPGGA,093538,4729.2704,N,01904.7840,E,1,05,4.6,105.2,M,41.0,M,,*4C
$GPGSA,A,3,03,,15,16,18,,,22,,,,,5.4,4.6,1.0*39
$GPGSV,3,1,11,03,64,294,36,08,03,335,,15,74,046,39,16,35,202,36*75
$GPGSV,3,2,11,18,57,079,36,19,36,301,31,21,30,068,,22,61,146,37*7B
$GPGSV,3,3,11,26,12,037,,27,02,313,,29,05,023,,,,,*43
$GPRMC,093539,A,4729.2701,N,01904.7841,E,000.0,000.0,310305,002.9,E*76
$GPGGA,093539,4729.2701,N,01904.7841,E,6,05,4.6,105.2,M,41.0,M,,*4E
$GPGSA,A,3,03,,15,16,18,,,22,,,,,5.4,4.6,1.0*39
$GPGSV,3,1,11,03,64,294,35,08,03,335,,15,74,046,37,16,35,202,35*7B
$GPGSV,3,2,11,18,57,079,35,19,36,301,31,21,30,068,,22,61,146,36*79
$GPGSV,3,3,11,26,12,037,,27,02,313,,29,05,023,,,,,*43
$GPRMC,093540,A,4729.2701,N,01904.7841,E,000.0,000.0,310305,002.9,E*78
$GPGGA,093540,4729.2701,N,01904.7841,E,6,05,4.6,105.2,M,41.0,M,,*40
$GPGSA,A,3,03,,15,16,18,,,22,,,,,5.4,4.6,1.0*39
$GPGSV,3,1,11,03,66,293,34,08,03,335,,15,74,046,36,16,35,202,34*7F
$GPGSV,3,2,11,18,57,079,36,19,36,301,31,21,30,068,,22,61,146,37*7B
$GPGSV,3,3,11,26,12,037,,27,02,313,,29,05,023,,,,,*43
$GPRMC,093541,A,4729.2700,N,01904.7845,E,000.0,000.0,310305,002.9,E*7C
$GPGGA,093541,4729.2700,N,01904.7845,E,6,05,4.6,105.2,M,41.0,M,,*44
$GPGSA,A,3,03,,15,16,18,,,22,,,,,4.8,4.6,1.0*34
$GPGSV,3,1,11,03,66,293,33,08,03,335,,15,74,046,35,16,35,202,33*7C
$GPGSV,3,2,11,18,57,079,34,19,36,301,30,21,30,068,,22,61,146,36*79
$GPGSV,3,3,11,26,12,037,,27,02,313,,29,05,023,,,,,*43
$GPRMC,093545,A,4729.2695,N,01904.7846,E,000.0,000.0,310305,002.9,E*76
$GPGGA,093545,4729.2695,N,01904.7846,E,6,05,4.6,105.2,M,41.0,M,,*4E
$GPGSA,A,3,03,,15,16,18,,,22,,,,,4.8,4.6,1.0*34
$GPGSV,3,1,11,03,66,293,33,08,03,335,,15,74,046,34,16,35,202,33*7D
$GPGSV,3,2,11,18,57,079,34,19,36,301,30,21,30,068,,22,61,146,35*7A
$GPGSV,3,3,11,26,12,037,,27,02,313,,29,05,023,,,,,*43
$GPRMC,093546,A,4729.2694,N,01904.7847,E,000.0,000.0,310305,002.9,E*75
$GPGGA,093546,4729.2694,N,01904.7847,E,6,05,4.6,105.2,M,41.0,M,,*4D
$GPGSA,A,3,03,,15,16,18,,,22,,,,,4.8,4.6,1.0*34
$GPGSV,3,1,11,03,66,293,32,08,03,335,,15,74,046,36,16,35,202,32*7F
$GPGSV,3,2,11,18,57,079,33,19,36,301,30,21,30,068,,22,61,146,35*7D
$GPGSV,3,3,11,26,12,037,,27,02,313,,29,05,023,,,,,*43
$GPRMC,093547,A,4729.2692,N,01904.7847,E,000.0,000.0,310305,002.9,E*72
$GPGGA,093547,4729.2692,N,01904.7847,E,6,05,4.6,105.2,M,41.0,M,,*4A
$GPGSA,A,3,03,,15,,18,,,22,,,,,4.8,4.6,1.0*33
$GPGSV,3,1,11,03,66,293,32,08,03,335,,15,74,046,36,16,35,202,32*7F
$GPGSV,3,2,11,18,57,079,33,19,36,301,30,21,30,068,,22,61,146,35*7D
$GPGSV,3,3,11,26,12,037,,27,02,313,,29,05,023,,,,,*43
$GPRMC,093548,A,4729.2691,N,01904.7847,E,000.0,000.0,310305,002.9,E*7E
$GPGGA,093548,4729.2691,N,01904.7847,E,6,04,4.6,105.2,M,41.0,M,,*47
$GPGSA,A,3,,,15,,18,,,22,,,,,4.8,4.6,1.0*30
$GPGSV,3,1,11,03,66,293,32,08,03,335,,15,74,046,35,16,35,202,32*7C
$GPGSV,3,2,11,18,57,079,33,19,36,301,30,21,30,068,,22,61,146,36*7E
$GPGSV,3,3,11,26,12,037,,27,02,313,,29,05,023,,,,,*43
$GPRMC,093549,A,4729.2689,N,01904.7847,E,000.0,000.0,310305,002.9,E*76
$GPGGA,093549,4729.2689,N,01904.7847,E,6,03,4.6,105.2,M,41.0,M,,*48
$GPGSA,A,3,,,15,,18,,,22,,,,,4.8,4.6,1.0*30
$GPGSV,3,1,11,03,66,293,31,08,03,335,,15,74,046,34,16,35,202,31*7D
$GPGSV,3,2,11,18,57,079,32,19,36,301,30,21,30,068,,22,61,146,34*7D
$GPGSV,3,3,11,26,12,037,,27,02,313,,29,05,023,,,,,*43
$GPRMC,093551,A,4729.2687,N,01904.7848,E,000.0,000.0,310305,002.9,E*7E
$GPGGA,093551,4729.2687,N,01904.7848,E,6,03,4.6,105.2,M,41.0,M,,*40
$GPGSA,A,3,,,,,,,,,,,,,4.8,4.6,1.0*3D
$GPGSV,3,1,11,03,66,293,31,08,03,335,,15,74,046,33,16,35,202,33*78
$GPGSV,3,2,11,18,57,079,32,19,36,301,30,21,30,068,,22,61,146,34*7D
$GPGSV,3,3,11,26,12,037,,27,02,313,,29,05,023,,,,,*43
$GPRMC,093552,A,4729.2685,N,01904.7848,E,000.0,000.0,310305,002.9,E*7F
$GPGGA,093552,4729.2685,N,01904.7848,E,6,00,4.6,105.2,M,41.0,M,,*42
$GPGSA,A,3,,,,,,,,,,,,,4.8,4.6,1.0*3D
$GPGSV,3,1,11,03,66,293,31,08,03,335,,15,74,046,33,16,35,202,35*7E
$GPGSV,3,2,11,18,57,079,31,19,36,301,30,21,30,068,,22,61,146,33*79
$GPGSV,3,3,11,26,12,037,,27,02,313,,29,05,023,,,,,*43
$GPRMC,093553,A,4729.2684,N,01904.7849,E,000.0,000.0,310305,002.9,E*7E
$GPGGA,093553,4729.2684,N,01904.7849,E,6,00,4.6,105.2,M,41.0,M,,*43
$GPGSA,A,3,,,,,,,,,,,,,4.8,4.6,1.0*3D
$GPGSV,3,1,11,03,66,293,31,08,03,335,,15,74,046,33,16,35,202,35*7E
$GPGSV,3,2,11,18,57,079,31,19,36,301,30,21,30,068,,22,61,146,34*7E
$GPGSV,3,3,11,26,12,037,,27,02,313,,29,05,023,,,,,*43
$GPRMC,093554,A,4729.2683,N,01904.7849,E,000.0,000.0,310305,002.9,E*7E
$GPGGA,093554,4729.2683,N,01904.7849,E,6,00,4.6,105.2,M,41.0,M,,*43
$GPGSA,A,3,,,,,,,,,,,,,4.8,4.6,1.0*3D
$GPGSV,3,1,11,03,66,293,31,08,03,335,,15,74,046,34,16,35,202,35*79
$GPGSV,3,2,11,18,57,079,31,19,36,301,30,21,30,068,,22,61,146,33*79
$GPGSV,3,3,11,26,12,037,,27,02,313,,29,05,023,,,,,*43
$GPRMC,093555,A,4729.2685,N,01904.7846,E,000.0,000.0,310305,002.9,E*76
$GPGGA,093555,4729.2685,N,01904.7846,E,1,00,4.0,105.2,M,41.0,M,,*4A
$GPGSA,A,3,,,15,16,,,,22,,,,,4.0,4.0,1.0*30
$GPGSV,3,1,11,03,66,293,31,08,03,335,,15,74,046,34,16,35,202,35*79
$GPGSV,3,2,11,18,57,079,31,19,36,301,30,21,30,068,,22,61,146,33*79
$GPGSV,3,3,11,26,12,037,,27,02,313,,29,05,023,,,,,*43
$GPRMC,093556,A,4729.2683,N,01904.7846,E,000.0,000.0,310305,002.9,E*73
$GPGGA,093556,4729.2683,N,01904.7846,E,6,03,4.0,105.2,M,41.0,M,,*4B
$GPGSA,A,3,,,15,16,,,,22,,,,,4.0,4.0,1.0*30
$GPGSV,3,1,11,03,66,293,31,08,03,335,,15,74,046,34,16,35,202,34*78
$GPGSV,3,2,11,18,57,079,31,19,36,301,30,21,30,068,,22,61,146,32*78
$GPGSV,3,3,11,26,12,037,,27,02,313,,29,05,023,,,,,*43
$GPRMC,093557,A,4729.2683,N,01904.7846,E,000.0,000.0,310305,002.9,E*72
$GPGGA,093557,4729.2683,N,01904.7846,E,6,03,4.0,105.2,M,41.0,M,,*4A
$GPGSA,A,3,,,15,16,,,,22,,,,,4.0,4.0,1.0*30
$GPGSV,3,1,11,03,66,293,31,08,03,335,,15,74,046,33,16,35,202,34*7F
$GPGSV,3,2,11,18,57,079,31,19,36,301,30,21,30,068,,22,61,146,32*78
$GPGSV,3,3,11,26,12,037,,27,02,313,,29,05,023,,,,,*43
$GPRMC,093558,A,4729.2680,N,01904.7847,E,000.0,000.0,310305,002.9,E*7F
$GPGGA,093558,4729.2680,N,01904.7847,E,6,03,4.0,105.2,M,41.0,M,,*47
$GPGSA,A,3,,,15,16,,,,22,,,,,4.0,4.0,1.0*30
$GPGSV,3,1,11,03,66,293,31,08,03,335,,15,74,046,33,16,35,202,33*78
$GPGSV,3,2,11,18,57,079,31,19,36,301,30,21,30,068,,22,61,146,32*78
$GPGSV,3,3,11,26,12,037,,27,02,313,,29,05,023,,,,,*43
$GPRMC,093559,A,4729.2680,N,01904.7847,E,000.0,000.0,310305,002.9,E*7E
$GPGGA,093559,4729.2680,N,01904.7847,E,6,03,4.0,105.2,M,41.0,M,,*46
$GPGSA,A,3,,,15,16,,,,22,,,,,4.0,4.0,1.0*30
$GPGSV,3,1,11,03,66,293,31,08,03,335,,15,74,046,33,16,35,202,33*78
$GPGSV,3,2,11,18,57,079,32,19,36,301,30,21,30,068,,22,61,146,32*7B
$GPGSV,3,3,11,26,12,037,,27,02,313,,29,05,023,,,,,*43
$GPRMC,093600,A,4729.2679,N,01904.7847,E,000.0,000.0,310305,002.9,E*77
$GPGGA,093600,4729.2679,N,01904.7847,E,6,03,4.0,105.2,M,41.0,M,,*4F
$GPGSA,A,3,,,15,16,,,,22,,,,,4.0,4.0,1.0*30
$GPGSV,3,1,11,03,66,293,31,08,03,335,,15,74,046,33,16,35,202,33*78
$GPGSV,3,2,11,18,57,079,32,19,36,301,30,21,30,068,,22,61,146,32*7B
$GPGSV,3,3,11,26,12,037,,27,02,313,,29,05,023,,,,,*43
$GPRMC,093601,A,4729.2679,N,01904.7843,E,000.0,000.0,310305,002.9,E*72
$PGRMT,GPS 25-LVS VER 2.50 ,P,P,R,R,P,,27,R*08
$GPGGA,093601,4729.2679,N,01904.7843,E,1,03,4.0,105.2,M,41.0,M,,*4D
$GPGSA,A,3,03,,15,16,18,,,22,,,,,4.0,4.0,1.0*3A
$GPGSV,3,1,11,03,66,293,38,08,03,335,,15,74,046,39,16,35,202,40*7F
$GPGSV,3,2,11,18,57,079,38,19,36,301,31,21,30,068,,22,61,146,39*7B
$GPGSV,3,3,11,26,12,037,,27,02,313,,29,05,023,,,,,*43
$GPRMC,093602,A,4729.2684,N,01904.7845,E,000.0,000.0,310305,002.9,E*75
$GPGGA,093602,4729.2684,N,01904.7845,E,1,05,2.6,104.3,M,41.0,M,,*4C
$GPGSA,A,3,03,,15,16,18,,,22,,,,,4.2,2.6,1.5*3D
$GPGSV,3,1,11,03,66,293,37,08,03,335,,15,74,046,39,16,35,202,39*7E
$GPGSV,3,2,11,18,57,079,37,19,36,301,30,21,30,068,,22,61,146,38*74
$GPGSV,3,3,11,26,12,037,,27,02,313,,29,05,023,,,,,*43
$GPRMC,093603,A,4729.2688,N,01904.7847,E,000.0,000.0,310305,002.9,E*7A
$GPGGA,093603,4729.2688,N,01904.7847,E,1,05,2.7,103.6,M,41.0,M,,*40
$GPGSA,A,3,03,,15,16,18,,,22,,,,,4.6,2.7,2.0*3E
$GPGSV,3,1,11,03,66,293,37,08,03,335,,15,74,046,39,16,35,202,39*7E
$GPGSV,3,2,11,18,57,079,37,19,36,301,30,21,30,068,,22,61,146,39*75
$GPGSV,3,3,11,26,12,037,,27,02,313,,29,05,023,,,,,*43
$GPRMC,093604,A,4729.2691,N,01904.7851,E,000.0,000.0,310305,002.9,E*72
$GPGGA,093604,4729.2691,N,01904.7851,E,1,05,2.9,103.5,M,41.0,M,,*45
$GPGSA,A,3,03,,15,16,18,,,22,,,,,4.6,2.9,1.0*33
$GPGSV,3,1,11,03,66,293,37,08,03,335,,15,74,046,42,16,35,202,40*7C
$GPGSV,3,2,11,18,57,079,37,19,36,301,30,21,30,068,,22,61,146,41*7A
$GPGSV,3,3,11,26,12,037,,27,02,313,,29,05,023,,,,,*43
$GPRMC,093605,A,4729.2695,N,01904.7853,E,000.0,000.0,310305,002.9,E*75
$GPGGA,093605,4729.2695,N,01904.7853,E,1,05,2.9,102.9,M,41.0,M,,*4F
$GPGSA,A,3,03,,15,16,18,,,22,,,,,4.6,2.9,1.0*33
$GPGSV,3,1,11,03,66,293,36,08,03,335,,15,74,046,41,16,35,202,40*7E
$GPGSV,3,2,11,18,57,079,37,19,36,301,30,21,30,068,,22,61,146,40*7B
$GPGSV,3,3,11,26,12,037,,27,02,313,,29,05,023,,,,,*43
$GPRMC,093606,A,4729.2698,N,01904.7853,E,000.0,000.0,310305,002.9,E*7B
$GPGGA,093606,4729.2698,N,01904.7853,E,1,05,3.0,102.8,M,41.0,M,,*48
$GPGSA,A,3,03,,15,16,18,,,22,,,,,4.0,3.0,1.0*3D
$GPGSV,3,1,11,03,66,293,36,08,03,335,,15,74,046,41,16,35,202,40*7E
$GPGSV,3,2,11,18,57,079,37,19,36,301,30,21,30,068,,22,61,146,40*7B
$GPGSV,3,3,11,26,12,037,,27,02,313,,29,05,023,,,,,*43
$GPRMC,093607,A,4729.2702,N,01904.7852,E,000.0,000.0,310305,002.9,E*79
$GPGGA,093607,4729.2702,N,01904.7852,E,1,05,3.0,102.8,M,41.0,M,,*4A
$GPGSA,A,3,03,,15,16,18,,,22,,,,,4.0,3.0,1.0*3D
$GPGSV,3,1,11,03,66,293,35,08,03,335,,15,74,046,40,16,35,202,39*72
$GPGSV,3,2,11,18,57,079,36,19,36,301,30,21,30,068,,22,61,146,40*7A
$GPGSV,3,3,11,26,12,037,,27,02,313,,29,05,023,,,,,*43
$GPRMC,093608,A,4729.2705,N,01904.7851,E,000.0,000.0,310305,002.9,E*72
$GPGGA,093608,4729.2705,N,01904.7851,E,1,05,3.1,102.8,M,41.0,M,,*40
$GPGSA,A,3,03,,15,16,18,,,22,,,,,4.0,3.1,1.0*3C
$GPGSV,3,1,11,03,66,293,35,08,03,334,,15,74,046,38,16,35,202,40*72
$GPGSV,3,2,11,18,57,079,35,19,36,301,30,21,30,068,,22,61,146,38*76
$GPGSV,3,3,11,26,12,037,,27,02,313,,29,05,023,,,,,*43
$GPRMC,093610,A,4729.2703,N,01904.7852,E,000.0,000.0,310305,002.9,E*7E
$GPGGA,093610,4729.2703,N,01904.7852,E,6,05,3.1,102.7,M,41.0,M,,*44
$GPGSA,A,3,03,,15,16,18,,,22,,,,,4.0,3.1,1.0*3C
$GPGSV,3,1,11,03,66,293,34,08,03,334,,15,74,046,37,16,35,202,39*72
$GPGSV,3,2,11,18,57,079,35,19,36,301,30,21,30,068,,22,61,146,38*76
$GPGSV,3,3,11,26,12,037,,27,02,313,,29,05,023,,,,,*43
$GPRMC,093611,A,4729.2702,N,01904.7852,E,000.0,000.0,310305,002.9,E*7E
$GPGGA,093611,4729.2702,N,01904.7852,E,6,05,3.1,102.7,M,41.0,M,,*44
$GPGSA,A,3,03,,15,16,18,,,22,,,,,4.0,3.1,1.0*3C
$GPGSV,3,1,11,03,66,293,33,08,03,334,,15,74,046,36,16,35,202,38*75
$GPGSV,3,2,11,18,57,079,34,19,36,301,30,21,30,068,,22,61,146,36*79
$GPGSV,3,3,11,26,12,037,,27,02,313,,29,05,023,,,,,*43
$GPRMC,093612,A,4729.2702,N,01904.7852,E,000.0,000.0,310305,002.9,E*7D
$GPGGA,093612,4729.2702,N,01904.7852,E,6,05,3.1,102.7,M,41.0,M,,*47
$GPGSA,A,3,03,,15,16,18,,,22,,,,,4.0,3.1,1.0*3C
$GPGSV,3,1,11,03,66,293,33,08,03,334,,15,74,046,35,16,35,202,37*79
$GPGSV,3,2,11,18,57,079,33,19,36,301,30,21,30,068,,22,61,146,36*7E
$GPGSV,3,3,11,26,12,037,,27,02,313,,29,05,023,,,,,*43
$GPRMC,093613,A,4729.2700,N,01904.7853,E,000.0,000.0,310305,002.9,E*7F
$GPGGA,093613,4729.2700,N,01904.7853,E,6,05,3.1,102.7,M,41.0,M,,*45
$GPGSA,A,3,03,,15,16,18,,,22,,,,,4.0,3.1,1.0*3C
$GPGSV,3,1,11,03,66,293,33,08,03,334,,15,74,046,34,16,35,202,37*78
$GPGSV,3,2,11,18,57,079,33,19,36,301,30,21,30,068,,22,61,146,35*7D
$GPGSV,3,3,11,26,12,037,,27,02,313,,29,05,023,,,,,*43
$GPRMC,093615,A,4729.2699,N,01904.7854,E,000.0,000.0,310305,002.9,E*7F
$GPGGA,093615,4729.2699,N,01904.7854,E,6,05,3.1,102.7,M,41.0,M,,*45
$GPGSA,A,3,,,15,16,,,,22,,,,,4.0,3.1,1.0*36
$GPGSV,3,1,11,03,66,293,33,08,03,334,,15,74,046,34,16,35,202,36*79
$GPGSV,3,2,11,18,57,079,33,19,36,301,30,21,30,068,,22,61,146,35*7D
$GPGSV,3,3,11,26,12,037,,27,02,313,,29,05,023,,,,,*43
$GPRMC,093616,A,4729.2702,N,01904.7856,E,000.0,000.0,310305,002.9,E*7D
$GPGGA,093616,4729.2702,N,01904.7856,E,1,03,2.6,102.0,M,41.0,M,,*47
$GPGSA,A,3,03,,15,16,18,,,22,,,,,4.2,2.6,1.5*3D
$GPGSV,3,1,11,03,66,293,39,08,03,334,,15,74,046,40,16,35,202,38*7E
$GPGSV,3,2,11,18,57,079,40,19,36,301,31,21,30,068,,22,61,146,40*7A
$GPGSV,3,3,11,26,12,037,,27,02,313,,29,05,023,,,,,*43
$GPRMC,093617,A,4729.2705,N,01904.7856,E,000.0,000.0,310305,002.9,E*7B
$GPGGA,093617,4729.2705,N,01904.7856,E,1,05,3.1,102.1,M,41.0,M,,*40
$GPGSA,A,3,03,,15,16,18,,,22,,,,,4.6,3.1,1.0*3A
$GPGSV,3,1,11,03,66,293,38,08,03,334,,15,74,046,38,16,35,202,36*7E
$GPGSV,3,2,11,18,57,079,37,19,36,301,31,21,30,068,,22,61,146,39*74
$GPGSV,3,3,11,26,12,037,,27,02,313,,29,05,023,,,,,*43
$GPRMC,093618,A,4729.2704,N,01904.7857,E,000.0,000.0,310305,002.9,E*74
$GPGGA,093618,4729.2704,N,01904.7857,E,1,05,3.1,102.1,M,41.0,M,,*4F
$GPGSA,A,3,03,,15,16,18,,,22,,,,,4.6,3.1,1.0*3A
$GPGSV,3,1,11,03,66,293,37,08,03,334,,15,74,046,38,16,35,202,36*71
$GPGSV,3,2,11,18,57,079,37,19,36,301,31,21,30,068,,22,61,146,38*75
$GPGSV,3,3,11,26,12,037,,27,02,313,,29,05,023,,,,,*43
$GPRMC,093620,A,4729.2702,N,01904.7857,E,000.0,000.0,310305,002.9,E*79
$GPGGA,093620,4729.2702,N,01904.7857,E,6,05,3.1,102.2,M,41.0,M,,*46
$GPGSA,A,3,03,,15,16,18,,,22,,,,,4.6,3.1,1.0*3A
$GPGSV,3,1,11,03,66,293,37,08,03,334,,15,74,046,37,16,35,202,35*7D
$GPGSV,3,2,11,18,57,079,36,19,36,301,31,21,30,068,,22,61,146,37*7B
$GPGSV,3,3,11,26,12,037,,27,02,313,,29,05,023,,,,,*43
$GPRMC,093621,A,4729.2701,N,01904.7858,E,000.0,000.0,310305,002.9,E*74
$GPGGA,093621,4729.2701,N,01904.7858,E,6,05,3.1,102.2,M,41.0,M,,*4B
$GPGSA,A,3,03,,15,16,18,,,22,,,,,4.6,3.1,1.0*3A
$GPGSV,3,1,11,03,66,293,35,08,03,334,,15,74,046,36,16,35,202,35*7E
$GPGSV,3,2,11,18,57,079,35,19,36,301,31,21,30,068,,22,61,146,36*79
$GPGSV,3,3,11,26,12,037,,27,02,313,,29,05,023,,,,,*43
$GPRMC,093622,A,4729.2700,N,01904.7858,E,000.0,000.0,310305,002.9,E*76
$GPGGA,093622,4729.2700,N,01904.7858,E,6,05,3.1,102.3,M,41.0,M,,*48
$GPGSA,A,3,03,,15,16,18,,,22,,,,,4.6,3.1,1.0*3A
$GPGSV,3,1,11,03,66,293,35,08,03,334,,15,74,046,35,16,35,202,35*7D
$GPGSV,3,2,11,18,57,079,35,19,36,301,31,21,30,068,,22,61,146,35*7A
$GPGSV,3,3,11,26,12,037,,27,02,313,,29,05,023,,,,,*43
$GPRMC,093623,A,4729.2699,N,01904.7859,E,000.0,000.0,310305,002.9,E*77
$GPGGA,093623,4729.2699,N,01904.7859,E,6,05,3.1,102.3,M,41.0,M,,*49
$GPGSA,A,3,03,,15,16,18,,,22,,,,,4.6,3.1,1.0*3A
$GPGSV,3,1,11,03,66,293,38,08,03,334,,15,74,046,34,16,35,202,34*70
$GPGSV,3,2,11,18,57,079,34,19,36,301,38,21,30,068,,22,61,146,35*72
$GPGSV,3,3,11,26,12,037,,27,02,313,,29,05,023,,,,,*43
$GPRMC,093624,A,4729.2698,N,01904.7859,E,000.0,000.0,310305,002.9,E*71
$GPGGA,093624,4729.2698,N,01904.7859,E,6,05,3.1,102.3,M,41.0,M,,*4F
$GPGSA,A,3,03,,15,16,18,,,22,,,,,4.6,3.1,1.0*3A
$GPGSV,3,1,11,03,66,293,43,08,03,334,,15,74,046,41,16,35,202,38*72
$GPGSV,3,2,11,18,57,079,41,19,36,301,41,21,30,068,,22,61,146,41*7D
$GPGSV,3,3,11,26,12,037,,27,02,313,,29,05,023,,,,,*43
$GPRMC,093625,A,4729.2699,N,01904.7860,E,000.0,000.0,310305,002.9,E*7B
$GPGGA,093625,4729.2699,N,01904.7860,E,1,05,2.6,102.8,M,41.0,M,,*4F
$GPGSA,A,3,03,,15,16,18,,,22,,,,,4.8,2.6,1.5*37
$GPGSV,3,1,11,03,66,293,43,08,03,334,,15,74,046,41,16,35,202,38*72
$GPGSV,3,2,11,18,57,079,41,19,36,301,41,21,30,068,,22,61,146,41*7D
$GPGSV,3,3,11,26,12,037,,27,02,313,,29,05,023,,,,,*43
$GPRMC,093626,A,4729.2701,N,01904.7860,E,000.0,000.0,310305,002.9,E*78
$GPGGA,093626,4729.2701,N,01904.7860,E,1,05,3.1,103.3,M,41.0,M,,*40
$GPGSA,A,3,03,,15,16,18,,,22,,,,,6.3,3.1,3.2*3D
$GPGSV,3,1,11,03,66,293,43,08,03,334,,15,74,046,41,16,35,202,38*72
$GPGSV,3,2,11,18,57,079,41,19,36,301,41,21,30,068,,22,61,146,40*7C
$GPGSV,3,3,11,26,12,037,,27,02,313,,29,05,023,,,,,*43
$GPRMC,093627,A,4729.2702,N,01904.7860,E,000.0,000.0,310305,002.9,E*7A
$GPGGA,093627,4729.2702,N,01904.7860,E,1,05,2.9,103.6,M,41.0,M,,*4E
$GPGSA,A,3,03,,15,16,18,,,22,,,,,7.1,2.9,4.2*30
$GPGSV,3,1,11,03,66,293,44,08,03,334,,15,74,046,44,16,35,202,37*7F
$GPGSV,3,2,11,18,57,079,43,19,36,301,42,21,30,068,,22,61,146,40*7D
$GPGSV,3,3,11,26,12,037,,27,02,313,,29,05,023,,,,,*43
$GPRMC,093628,A,4729.2709,N,01904.7860,E,000.0,000.0,310305,002.9,E*7E
$GPGGA,093628,4729.2709,N,01904.7860,E,1,05,2.7,103.5,M,41.0,M,,*47
$GPGSA,A,3,03,,15,16,18,,,22,,,,,2.7,2.7,1.0*3A
$GPGSV,3,1,11,03,66,293,45,08,03,334,,15,74,046,44,16,35,202,37*7E
$GPGSV,3,2,11,18,57,079,44,19,36,301,42,21,30,068,,22,61,146,42*78
$GPGSV,3,3,11,26,12,037,,27,02,313,,29,05,023,,,,,*43
$GPRMC,093629,A,4729.2717,N,01904.7861,E,000.0,000.0,310305,002.9,E*71
$GPGGA,093629,4729.2717,N,01904.7861,E,1,05,2.7,104.3,M,41.0,M,,*49
$GPGSA,A,3,03,,15,16,18,,,22,,,,,2.7,2.7,1.0*3A
$GPGSV,3,1,11,03,66,293,45,08,03,334,,15,74,046,44,16,35,202,35*7C
$GPGSV,3,2,11,18,57,079,43,19,36,301,42,21,30,068,,22,61,146,42*7F
$GPGSV,3,3,11,26,12,037,,27,02,313,,29,05,023,,,,,*43
$GPRMC,093630,A,4729.2724,N,01904.7860,E,000.0,000.0,310305,002.9,E*78
$GPGGA,093630,4729.2724,N,01904.7860,E,1,05,2.7,104.8,M,41.0,M,,*4B
$GPGSA,A,3,03,,15,16,18,,,22,,,,,2.7,2.7,1.0*3A
$GPGSV,3,1,11,03,66,293,45,08,03,334,,15,74,046,43,16,35,202,37*79
$GPGSV,3,2,11,18,57,079,42,19,36,301,43,21,30,068,,22,61,146,40*7D
$GPGSV,3,3,11,26,12,037,,27,02,313,,29,05,023,,,,,*43
$GPRMC,093631,A,4729.2731,N,01904.7861,E,000.0,000.0,310305,002.9,E*7C
$GPGGA,093631,4729.2731,N,01904.7861,E,1,05,2.7,105.3,M,41.0,M,,*45
$GPGSA,A,3,03,,15,16,18,,,22,,,,,2.7,2.7,1.0*3A
$GPGSV,3,1,11,03,66,293,46,08,03,334,,15,74,046,44,16,35,202,39*73
$GPGSV,3,2,11,18,57,079,43,19,36,301,43,21,30,068,,22,61,146,41*7D
$GPGSV,3,3,11,26,12,037,,27,02,313,,29,05,023,,,,,*43
$GPRMC,093632,A,4729.2739,N,01904.7861,E,000.0,000.0,310305,002.9,E*77
$GPGGA,093632,4729.2739,N,01904.7861,E,1,05,2.7,105.8,M,41.0,M,,*45
$GPGSA,A,3,03,,15,16,18,,,22,,,,,2.7,2.7,1.0*3A
$GPGSV,3,1,11,03,66,293,47,08,03,334,,15,74,046,44,16,35,202,40*7C
$GPGSV,3,2,11,18,57,079,44,19,36,301,44,21,30,068,,22,61,146,41*7D
$GPGSV,3,3,11,26,12,037,,27,02,313,,29,05,023,,,,,*43
$GPRMC,093633,A,4729.2749,N,01904.7861,E,000.0,000.0,310305,002.9,E*71
$GPGGA,093633,4729.2749,N,01904.7861,E,1,05,4.4,105.7,M,41.0,M,,*49
$GPGSA,A,3,03,,15,16,18,,,22,,,,,4.4,4.4,1.0*3A
$GPGSV,3,1,11,03,66,293,46,08,03,334,,15,74,046,44,16,35,202,39*73
$GPGSV,3,2,11,18,57,079,43,19,36,301,45,21,30,068,,22,61,146,41*7B
$GPGSV,3,3,11,26,12,037,,27,02,313,,29,05,023,,,,,*43
$GPRMC,093634,A,4729.2752,N,01904.7861,E,000.0,000.0,310305,002.9,E*7C
$GPGGA,093634,4729.2752,N,01904.7861,E,1,05,2.9,106.5,M,41.0,M,,*4E
$GPGSA,A,3,03,,15,16,18,,,22,,,,,5.4,2.9,2.3*30
$GPGSV,3,1,11,03,66,293,46,08,03,334,,15,74,046,45,16,35,202,38*73
$GPGSV,3,2,11,18,57,079,44,19,36,301,46,21,30,068,,22,61,146,41*7F
$GPGSV,3,3,11,26,12,037,,27,02,313,,29,05,023,,,,,*43
$GPRMC,093635,A,4729.2758,N,01904.7860,E,000.0,000.0,310305,002.9,E*76
$GPGGA,093635,4729.2758,N,01904.7860,E,1,05,2.7,106.9,M,41.0,M,,*46
$GPGSA,A,3,03,,15,16,18,,,22,,,,,2.7,2.7,1.0*3A
$GPGSV,3,1,11,03,66,293,46,08,03,334,,15,74,046,45,16,35,202,38*73
$GPGSV,3,2,11,18,57,079,44,19,36,301,46,21,30,068,,22,61,146,41*7F
$GPGSV,3,3,11,26,12,037,,27,02,313,,29,05,023,,,,,*43
$GPRMC,093636,A,4729.2761,N,01904.7859,E,000.0,000.0,310305,002.9,E*75
$GPGGA,093636,4729.2761,N,01904.7859,E,1,05,2.7,106.9,M,41.0,M,,*45
$GPGSA,A,3,03,,15,16,18,,,22,,,,,3.8,2.7,2.3*34
$GPGSV,3,1,11,03,66,293,45,08,03,334,,15,74,046,45,16,35,202,37*7F
$GPGSV,3,2,11,18,57,079,43,19,36,301,45,21,30,068,,22,61,146,40*7A
$GPGSV,3,3,11,26,12,037,,27,02,313,,29,05,023,,,,,*43
$GPRMC,093637,A,4729.2768,N,01904.7859,E,000.0,000.0,310305,002.9,E*7D
$GPGGA,093637,4729.2768,N,01904.7859,E,1,05,2.7,107.1,M,41.0,M,,*44
$GPGSA,A,3,03,,15,16,18,,,22,,,,,2.7,2.7,1.0*3A
$GPGSV,3,1,11,03,66,293,45,08,03,334,,15,74,046,44,16,35,202,38*71
$GPGSV,3,2,11,18,57,079,42,19,36,301,44,21,30,068,,22,61,146,39*74
$GPGSV,3,3,11,26,12,037,,27,02,313,,29,05,023,,,,,*43
$GPRMC,093638,A,4729.2772,N,01904.7859,E,000.0,000.0,310305,002.9,E*79
$GPGGA,093638,4729.2772,N,01904.7859,E,1,05,2.7,107.0,M,41.0,M,,*41
$GPGSA,A,3,03,,15,16,18,,,22,,,,,3.8,2.7,2.3*34
$GPGSV,3,1,11,03,66,293,46,08,03,334,,15,74,046,44,16,35,202,36*7C
$GPGSV,3,2,11,18,57,079,41,19,36,301,43,21,30,068,,22,61,146,38*71
$GPGSV,3,3,11,26,12,037,,27,02,313,,29,05,023,,,,,*43
$GPRMC,093639,A,4729.2779,N,01904.7858,E,000.0,000.0,310305,002.9,E*72
$GPGGA,093639,4729.2779,N,01904.7858,E,1,05,4.4,106.8,M,41.0,M,,*46
$GPGSA,A,3,03,,15,16,18,,,22,,,,,5.4,4.4,1.0*3B
$GPGSV,3,1,11,03,66,293,46,08,03,334,,15,74,046,44,16,35,202,36*7C
$GPGSV,3,2,11,18,57,079,41,19,36,301,43,21,30,068,,22,61,146,38*71
$GPGSV,3,3,11,26,12,037,,27,02,313,,29,05,023,,,,,*43
$GPRMC,093640,A,4729.2785,N,01904.7857,E,001.0,000.0,310305,002.9,E*71
$GPGGA,093640,4729.2785,N,01904.7857,E,1,05,2.6,105.9,M,41.0,M,,*42
$GPGSA,A,3,03,,15,16,18,,,22,,,,,5.6,2.6,1.5*38
$GPGSV,3,1,11,03,66,293,45,08,03,334,,15,74,046,43,16,35,202,38*76
$GPGSV,3,2,11,18,57,079,41,19,36,301,43,21,30,068,,22,61,146,38*71
$GPGSV,3,3,11,26,12,037,,27,02,313,,29,05,023,,,,,*43
$GPRMC,093641,A,4729.2795,N,01904.7858,E,001.1,000.0,310305,002.9,E*7F
$GPGGA,093641,4729.2795,N,01904.7858,E,1,05,2.7,104.2,M,41.0,M,,*46
$GPGSA,A,3,03,,15,16,18,,,22,,,,,3.4,2.7,1.0*38
$GPGSV,3,1,11,03,66,293,45,08,03,334,,15,74,046,43,16,35,202,37*79
$GPGSV,3,2,11,18,57,079,40,19,36,301,43,21,30,068,,22,61,146,38*70
$GPGSV,3,3,11,26,12,037,,27,02,313,,29,05,023,,,,,*43
$GPRMC,093642,A,4729.2805,N,01904.7858,E,001.2,000.0,310305,002.9,E*79
$GPGGA,093642,4729.2805,N,01904.7858,E,1,05,2.7,103.1,M,41.0,M,,*47
$GPGSA,A,3,03,,15,16,18,,,22,,,,,3.4,2.7,1.0*38
$GPGSV,3,1,11,03,66,293,44,08,03,334,,15,74,046,43,16,35,202,36*79
$GPGSV,3,2,11,18,57,079,39,19,36,301,43,21,30,068,31,22,61,146,38*7C
$GPGSV,3,3,11,26,12,037,,27,02,313,,29,05,023,,,,,*43
$GPRMC,093643,A,4729.2812,N,01904.7858,E,001.2,000.0,310305,002.9,E*7E
$GPGGA,093643,4729.2812,N,01904.7858,E,1,05,2.6,103.3,M,41.0,M,,*43
$GPGSA,A,3,03,,15,16,18,,,22,,,,,3.8,2.6,1.5*30
$GPGSV,3,1,11,03,66,293,45,08,03,334,,15,73,047,43,16,35,202,37*7F
$GPGSV,3,2,11,18,57,079,39,19,36,301,44,21,30,068,31,22,61,146,36*75
$GPGSV,3,3,11,26,12,037,,27,02,313,,29,05,023,,,,,*43
$GPRMC,093644,A,4729.2820,N,01904.7858,E,001.3,355.8,310305,002.9,E*72
$GPGGA,093644,4729.2820,N,01904.7858,E,1,05,2.6,103.0,M,41.0,M,,*46
$GPGSA,A,3,03,,15,16,18,,,22,,,,,2.9,2.6,1.0*35
$GPGSV,3,1,11,03,66,293,45,08,03,334,,15,73,047,43,16,35,202,37*7F
$GPGSV,3,2,11,18,57,079,39,19,36,301,44,21,30,068,31,22,61,146,36*75
$GPGSV,3,3,11,26,12,037,,27,02,313,,29,05,023,,,,,*43
$GPRMC,093645,A,4729.2828,N,01904.7857,E,001.3,359.2,310305,002.9,E*72
$GPGGA,093645,4729.2828,N,01904.7857,E,1,05,2.6,102.7,M,41.0,M,,*46
$GPGSA,A,3,03,,15,16,18,,,22,,,,,2.9,2.6,1.0*35
$GPGSV,3,1,11,03,66,293,45,08,03,334,,15,73,047,43,16,35,202,36*7E
$GPGSV,3,2,11,18,57,079,38,19,36,301,44,21,30,068,31,22,61,146,36*74
$GPGSV,3,3,11,26,12,037,,27,02,313,,29,05,023,,,,,*43
$GPRMC,093646,A,4729.2835,N,01904.7857,E,001.5,352.6,310305,002.9,E*74
$GPGGA,093646,4729.2835,N,01904.7857,E,1,05,2.7,102.5,M,41.0,M,,*4A
$GPGSA,A,3,03,,15,16,18,,,22,,,,,2.9,2.7,1.0*34
$GPGSV,3,1,11,03,66,293,45,08,03,334,,15,73,047,42,16,35,202,36*7F
$GPGSV,3,2,11,18,57,079,38,19,36,301,44,21,30,068,31,22,61,146,35*77
$GPGSV,3,3,11,26,12,037,,27,02,313,,29,05,023,,,,,*43
$GPRMC,093647,A,4729.2846,N,01904.7856,E,002.0,353.2,310305,002.9,E*73
$GPGGA,093647,4729.2846,N,01904.7856,E,1,05,3.2,100.5,M,41.0,M,,*48
$GPGSA,A,3,03,,15,16,18,,,22,,,,,4.6,3.2,2.7*3D
$GPGSV,3,1,11,03,66,293,45,08,03,334,,15,73,047,42,16,35,202,37*7E
$GPGSV,3,2,11,18,57,079,37,19,36,301,44,21,30,068,31,22,61,146,35*78
$GPGSV,3,3,11,26,12,037,,27,02,313,,29,05,023,,,,,*43
$GPRMC,093648,A,4729.2859,N,01904.7856,E,002.0,353.6,310305,002.9,E*76
$GPGGA,093648,4729.2859,N,01904.7856,E,1,05,2.9,98.4,M,41.0,M,,*72
$GPGSA,A,3,03,,15,16,18,,,22,,,,,2.9,2.9,1.0*3A
$GPGSV,3,1,11,03,66,293,44,08,03,334,,15,73,047,42,16,35,202,38*70
$GPGSV,3,2,11,18,57,079,37,19,36,301,43,21,30,068,31,22,61,146,34*7E
$GPGSV,3,3,11,26,12,037,,27,02,313,,29,05,023,,,,,*43
$GPRMC,093649,A,4729.2864,N,01904.7855,E,002.0,353.3,310305,002.9,E*7F
$GPGGA,093649,4729.2864,N,01904.7855,E,1,05,2.9,97.4,M,41.0,M,,*71
$GPGSA,A,3,03,,15,16,18,,,22,,,,,4.0,2.9,2.3*35
$GPGSV,3,1,11,03,66,293,46,08,03,334,,15,73,047,45,16,33,202,37*7C
$GPGSV,3,2,11,18,57,079,38,19,36,301,45,21,30,068,31,22,61,146,41*75
$GPGSV,3,3,11,26,12,037,,27,02,313,,29,05,023,,,,,*43
$GPRMC,093650,A,4729.2870,N,01904.7856,E,002.0,353.9,310305,002.9,E*7B
$GPGGA,093650,4729.2870,N,01904.7856,E,1,05,2.7,96.5,M,41.0,M,,*71
$GPGSA,A,3,03,,15,16,18,,,22,,,,,2.7,2.7,1.0*3A
$GPGSV,3,1,11,03,66,293,47,08,03,334,,15,73,047,47,16,33,202,37*7F
$GPGSV,3,2,11,18,57,079,40,19,36,301,46,21,30,068,31,22,61,146,42*7A
$GPGSV,3,3,11,26,12,037,,27,02,313,,29,05,023,,,,,*43
$GPRMC,093651,A,4729.2876,N,01904.7856,E,002.0,354.5,310305,002.9,E*77
$GPGGA,093651,4729.2876,N,01904.7856,E,1,05,2.7,96.6,M,41.0,M,,*75
$GPGSA,A,3,03,,15,16,18,,,22,,,,,2.7,2.7,1.0*3A
$GPGSV,3,1,11,03,66,293,48,08,03,334,,15,73,047,47,16,33,202,36*71
$GPGSV,3,2,11,18,57,079,41,19,36,301,47,21,30,068,31,22,61,146,45*7D
$GPGSV,3,3,11,26,12,037,,27,02,313,,29,05,023,,,,,*43
$GPRMC,093652,A,4729.2882,N,01904.7855,E,001.9,353.9,310305,002.9,E*7D
$GPGGA,093652,4729.2882,N,01904.7855,E,1,05,2.7,96.9,M,41.0,M,,*71
$GPGSA,A,3,03,,15,16,18,,,22,,,,,2.7,2.7,1.0*3A
$GPGSV,3,1,11,03,66,293,49,08,03,334,,15,73,047,48,16,33,202,36*7F
$GPGSV,3,2,11,18,57,079,42,19,36,301,47,21,30,068,31,22,61,146,45*7E
$GPGSV,3,3,11,26,12,037,,27,02,313,,29,05,023,,,,,*43
$GPRMC,093653,A,4729.2889,N,01904.7854,E,002.0,351.4,310305,002.9,E*73
$GPGGA,093653,4729.2889,N,01904.7854,E,1,05,3.2,96.7,M,41.0,M,,*70
$GPGSA,A,3,03,,15,16,18,,,22,,,,,4.4,3.2,2.8*30
$GPGSV,3,1,11,03,66,293,48,08,03,334,,15,73,047,47,16,33,202,36*71
$GPGSV,3,2,11,18,57,079,40,19,36,301,46,21,30,068,31,22,61,146,44*7C
$GPGSV,3,3,11,26,12,037,,27,02,313,,29,05,023,,,,,*43
$GPRMC,093654,A,4729.2904,N,01904.7850,E,002.6,353.4,310305,002.9,E*70
$GPGGA,093654,4729.2904,N,01904.7850,E,1,05,4.0,98.6,M,41.0,M,,*7D
$GPGSA,A,3,03,,15,16,18,19,,22,,,,,5.3,4.0,3.2*30
$GPGSV,3,1,11,03,66,293,46,08,03,334,,15,73,047,44,16,33,202,35*7F
$GPGSV,3,2,11,18,57,079,38,19,36,301,45,21,30,068,31,22,61,146,42*76
$GPGSV,3,3,11,26,12,037,,27,02,313,,29,05,023,,,,,*43
$GPRMC,093655,A,4729.2910,N,01904.7850,E,002.6,353.6,310305,002.9,E*76
$GPGGA,093655,4729.2910,N,01904.7850,E,1,06,4.3,99.0,M,41.0,M,,*7E
$GPGSA,A,3,03,,15,16,18,19,,22,,,,,5.5,4.3,1.0*35
$GPGSV,3,1,11,03,66,293,46,08,03,334,,15,73,047,44,16,33,202,35*7F
$GPGSV,3,2,11,18,57,079,38,19,36,301,45,21,30,068,31,22,61,146,42*76
$GPGSV,3,3,11,26,12,037,,27,02,313,,29,05,023,,,,,*43
$GPRMC,093656,A,4729.2912,N,01904.7850,E,002.5,353.8,310305,002.9,E*7A
$GPGGA,093656,4729.2912,N,01904.7850,E,1,06,4.3,99.0,M,41.0,M,,*7F
$GPGSA,A,3,03,,15,16,18,19,,22,,,,,5.5,4.3,1.0*35
$GPGSV,3,1,11,03,66,293,44,08,03,334,,15,73,047,42,16,33,202,34*7A
$GPGSV,3,2,11,18,57,079,37,19,36,301,43,21,30,068,31,22,61,146,41*7C
$GPGSV,3,3,11,26,12,037,,27,02,313,,29,05,023,,,,,*43
$GPRMC,093657,A,4729.2916,N,01904.7850,E,002.5,353.9,310305,002.9,E*7E
$GPGGA,093657,4729.2916,N,01904.7850,E,1,06,4.3,99.0,M,41.0,M,,*7A
$GPGSA,A,3,03,,15,16,18,19,,22,,,,,5.5,4.3,1.0*35
$GPGSV,3,1,11,03,66,293,44,08,03,334,,15,73,047,42,16,33,202,34*7A
$GPGSV,3,2,11,18,57,079,37,19,36,301,43,21,30,068,31,22,61,146,41*7C
$GPGSV,3,3,11,26,12,037,,27,02,313,,29,05,023,,,,,*43
$GPRMC,093658,A,4729.2922,N,01904.7849,E,002.7,356.3,310305,002.9,E*73
$GPGGA,093658,4729.2922,N,01904.7849,E,1,06,4.5,99.0,M,41.0,M,,*7C
$GPGSA,A,3,03,,15,16,18,19,,22,,,,,5.6,4.5,1.0*30
$GPGSV,3,1,11,03,66,293,44,08,03,334,,15,73,047,42,16,33,202,34*7A
$GPGSV,3,2,11,18,56,077,36,19,36,301,44,21,30,068,34,22,61,146,40*71
$GPGSV,3,3,11,26,12,037,,27,02,313,,29,05,023,,,,,*43
$GPRMC,093659,A,4729.2929,N,01904.7848,E,002.6,356.2,310305,002.9,E*78
$GPGGA,093659,4729.2929,N,01904.7848,E,1,06,4.8,99.0,M,41.0,M,,*7A
$GPGSA,A,3,03,,15,16,18,19,,22,,,,,5.8,4.8,1.0*33
$GPGSV,3,1,11,03,66,293,44,08,03,334,,15,73,047,41,16,33,202,33*7E
$GPGSV,3,2,11,18,56,077,36,19,36,301,44,21,30,068,34,22,61,146,39*7F
$GPGSV,3,3,11,26,12,037,,27,02,313,,29,05,023,,,,,*43
$GPRMC,093700,A,4729.2931,N,01904.7847,E,002.6,356.1,310305,002.9,E*70
$GPGGA,093700,4729.2931,N,01904.7847,E,1,06,5.0,99.0,M,41.0,M,,*78
$GPGSA,A,3,03,,15,16,18,19,,22,,,,,5.9,5.0,1.0*3B
$GPGSV,3,1,11,03,66,293,43,08,03,334,,15,73,047,40,16,33,202,33*78
$GPGSV,3,2,11,18,56,077,35,19,36,301,44,21,30,068,34,22,61,146,38*7D
$GPGSV,3,3,11,26,12,037,,27,02,313,,29,05,023,,,,,*43
$GPRMC,093701,A,4729.2938,N,01904.7846,E,002.6,356.2,310305,002.9,E*7A
$GPGGA,093701,4729.2938,N,01904.7846,E,1,06,5.0,99.3,M,41.0,M,,*72
$GPGSA,A,3,03,,15,16,18,19,,22,,,,,5.9,5.0,1.0*3B
$GPGSV,3,1,11,03,66,293,43,08,03,334,,15,73,047,40,16,33,202,36*7D
$GPGSV,3,2,11,18,56,077,37,19,36,301,43,21,30,068,33,22,61,146,40*70
$GPGSV,3,3,11,26,12,037,,27,02,313,,29,05,023,,,,,*43
$GPRMC,093702,A,4729.2944,N,01904.7845,E,002.5,356.2,310305,002.9,E*72
$GPGGA,093702,4729.2944,N,01904.7845,E,1,06,5.2,99.6,M,41.0,M,,*7E
$GPGSA,A,3,03,,15,16,18,19,,22,,,,,6.0,5.2,1.0*33
$GPGSV,3,1,11,03,66,293,45,08,03,334,,15,73,047,41,16,33,202,36*7A
$GPGSV,3,2,11,18,56,077,39,19,37,301,44,21,30,068,33,22,61,146,39*76
$GPGSV,3,3,11,26,12,037,,27,02,313,,29,05,023,,,,,*43
$GPRMC,093703,A,4729.2951,N,01904.7846,E,002.5,356.5,310305,002.9,E*73
$GPGGA,093703,4729.2951,N,01904.7846,E,1,06,5.2,100.0,M,41.0,M,,*4F
$GPGSA,A,3,03,,15,16,18,19,,22,,,,,6.0,5.2,1.0*33
$GPGSV,3,1,11,03,66,293,46,08,03,334,,15,73,047,42,16,33,202,36*7A
$GPGSV,3,2,11,18,56,077,39,19,37,301,45,21,30,068,33,22,61,146,39*77
$GPGSV,3,3,11,26,12,037,,27,02,313,,29,05,023,,,,,*43
$GPRMC,093704,A,4729.2958,N,01904.7847,E,002.5,356.8,310305,002.9,E*71
$PGRMT,GPS 25-LVS VER 2.50 ,P,P,R,R,P,,26,R*09
$GPGGA,093704,4729.2958,N,01904.7847,E,1,06,5.2,100.3,M,41.0,M,,*43
$GPGSA,A,3,03,,15,16,18,19,,22,,,,,6.0,5.2,1.0*33
$GPGSV,3,1,11,03,66,293,46,08,03,334,,15,73,047,41,16,33,202,39*76
$GPGSV,3,2,11,18,56,077,40,19,37,301,44,21,30,068,32,22,61,146,38*78
$GPGSV,3,3,11,26,12,037,,27,02,313,,29,05,023,,,,,*43
$GPRMC,093705,A,4729.2965,N,01904.7847,E,002.5,356.9,310305,002.9,E*7F
$GPGGA,093705,4729.2965,N,01904.7847,E,1,06,5.4,100.9,M,41.0,M,,*40
$GPGSA,A,3,03,,15,16,18,19,,22,,,,,6.1,5.4,1.0*34
$GPGSV,3,1,11,03,66,293,47,08,03,334,,15,73,047,43,16,33,202,39*75
$GPGSV,3,2,11,18,56,077,42,19,37,301,45,21,30,068,32,22,61,146,40*74
$GPGSV,3,3,11,26,12,037,,27,02,313,,29,05,023,,,,,*43
$GPRMC,093706,A,4729.2972,N,01904.7848,E,002.5,357.3,310305,002.9,E*7E
$GPGGA,093706,4729.2972,N,01904.7848,E,1,06,5.5,101.2,M,41.0,M,,*41
$GPGSA,A,3,03,,15,16,18,19,,22,,,,,6.2,5.5,1.0*36
$GPGSV,3,1,11,03,66,293,46,08,03,334,,15,73,047,43,16,33,202,39*74
$GPGSV,3,2,11,18,56,077,42,19,37,301,44,21,30,068,32,22,61,146,39*7B
$GPGSV,3,3,11,26,12,037,,27,02,313,,29,05,023,,,,,*43
$GPRMC,093707,A,4729.2978,N,01904.7847,E,002.5,357.2,310305,002.9,E*7B
$GPGGA,093707,4729.2978,N,01904.7847,E,1,06,5.7,101.4,M,41.0,M,,*41
$GPGSA,A,3,03,,15,16,18,19,,22,,,,,6.3,5.7,1.0*35
$GPGSV,3,1,11,03,66,293,46,08,03,334,,15,73,047,43,16,33,202,38*75
$GPGSV,3,2,11,18,56,077,41,19,37,301,45,21,30,068,31,22,61,146,38*7B
$GPGSV,3,3,11,26,12,037,,27,02,313,,29,05,023,,,,,*43
$GPRMC,093708,A,4729.2983,N,01904.7848,E,002.4,357.4,310305,002.9,E*78
$GPGGA,093708,4729.2983,N,01904.7848,E,1,06,5.7,101.7,M,41.0,M,,*46
$GPGSA,A,3,03,,15,16,18,19,,22,,,,,6.3,5.7,1.0*35
$GPGSV,3,1,11,03,66,293,46,08,03,334,,15,73,047,43,16,33,202,37*7A
$GPGSV,3,2,11,18,56,077,41,19,37,301,44,21,30,068,31,22,61,146,38*7A
$GPGSV,3,3,11,26,12,037,,27,02,313,,29,05,023,,,,,*43
$GPRMC,093709,A,4729.2980,N,01904.7848,E,002.3,357.4,310305,002.9,E*7D
$GPGGA,093709,4729.2980,N,01904.7848,E,1,06,5.8,102.0,M,41.0,M,,*4F
$GPGSA,A,3,03,,15,16,18,19,,22,,,,,6.3,5.8,1.0*3A
$GPGSV,3,1,11,03,66,293,48,08,03,334,,15,73,047,45,16,33,202,37*72
$GPGSV,3,2,11,18,56,077,43,19,37,301,45,21,30,068,31,22,61,146,43*75
$GPGSV,3,3,11,26,12,037,,27,02,313,,29,05,023,,,,,*43
$GPRMC,093710,A,4729.2979,N,01904.7846,E,002.2,356.3,310305,002.9,E*7A
$GPGGA,093710,4729.2979,N,01904.7846,E,1,06,3.6,102.4,M,41.0,M,,*43
$GPGSA,A,3,03,,15,16,18,19,,22,,,,,6.4,3.6,1.5*30
$GPGSV,3,1,11,03,66,293,48,08,03,334,,15,73,047,45,16,33,202,46*74
$GPGSV,3,2,11,18,56,077,45,19,37,301,47,21,30,068,31,22,61,146,47*75
$GPGSV,3,3,11,26,12,037,,27,02,313,,29,05,023,,,,,*43
$GPRMC,093711,A,4729.2978,N,01904.7847,E,002.0,356.6,310305,002.9,E*7C
$GPGGA,093711,4729.2978,N,01904.7847,E,1,06,3.6,102.7,M,41.0,M,,*41
$GPGSA,A,3,03,,15,16,18,19,,22,,,,,6.4,3.6,1.9*3C
$GPGSV,3,1,11,03,66,293,48,08,03,334,,15,73,047,45,16,33,202,46*74
$GPGSV,3,2,11,18,56,077,45,19,37,301,47,21,29,069,31,22,61,146,47*7C
$GPGSV,3,3,11,26,12,037,,27,02,313,,29,05,023,,,,,*43
$GPRMC,093712,A,4729.2980,N,01904.7849,E,001.9,357.3,310305,002.9,E*78
$GPGGA,093712,4729.2980,N,01904.7849,E,1,06,2.6,102.9,M,41.0,M,,*44
$GPGSA,A,3,03,,15,16,18,19,,22,,,,,6.4,2.6,2.3*34
$GPGSV,3,1,11,03,66,293,49,08,03,334,,15,73,047,45,16,33,202,46*75
$GPGSV,3,2,11,18,56,077,45,19,37,301,29,21,29,069,31,22,61,146,47*74
$GPGSV,3,3,11,26,12,037,,27,02,313,,29,05,023,,,,,*43
$GPRMC,093713,A,4729.2980,N,01904.7850,E,001.7,357.3,310305,002.9,E*7F
$GPGGA,093713,4729.2980,N,01904.7850,E,1,06,2.6,103.3,M,41.0,M,,*46
$GPGSA,A,3,03,,15,16,18,19,,22,,,,,6.4,2.6,2.7*30
$GPGSV,3,1,11,03,66,293,50,08,03,334,,15,73,047,46,16,33,202,47*7F
$GPGSV,3,2,11,18,56,077,45,19,37,301,38,21,29,069,31,22,61,146,47*74
$GPGSV,3,3,11,26,12,037,,27,02,313,,29,05,023,,,,,*43
$GPRMC,093714,A,4729.2980,N,01904.7850,E,001.6,357.1,310305,002.9,E*7B
$GPGGA,093714,4729.2980,N,01904.7850,E,1,06,2.6,103.8,M,41.0,M,,*4A
$GPGSA,A,3,03,,15,16,18,19,,22,,,,,6.2,2.6,2.9*38
$GPGSV,3,1,11,03,66,293,50,08,03,334,,15,73,047,46,16,33,202,48*70
$GPGSV,3,2,11,18,56,077,46,19,37,301,40,21,29,069,31,22,61,146,49*76
$GPGSV,3,3,11,26,12,037,,27,02,313,,29,05,023,,,,,*43
$GPRMC,093715,A,4729.2980,N,01904.7850,E,001.5,357.2,310305,002.9,E*7A
$GPGGA,093715,4729.2980,N,01904.7850,E,1,06,2.9,104.2,M,41.0,M,,*49
$GPGSA,A,3,03,,15,16,18,19,,22,,,,,4.9,2.9,1.0*34
$GPGSV,3,1,11,03,66,293,49,08,03,334,,15,73,047,46,16,33,202,48*78
$GPGSV,3,2,11,18,56,077,46,19,37,301,40,21,29,069,31,22,61,146,49*76
$GPGSV,3,3,11,26,12,037,,27,02,313,,29,05,023,,,,,*43
$GPRMC,093716,A,4729.2980,N,01904.7852,E,001.3,358.6,310305,002.9,E*76
$GPGGA,093716,4729.2980,N,01904.7852,E,1,06,2.2,104.6,M,41.0,M,,*47
$GPGSA,A,3,03,,15,16,18,19,,22,,,,,2.2,2.2,1.0*32
$GPGSV,3,1,11,03,66,293,49,08,03,334,,15,73,047,47,16,33,202,47*76
$GPGSV,3,2,11,18,56,077,47,19,37,301,43,21,29,069,31,22,62,145,49*74
$GPGSV,3,3,11,26,12,037,,27,02,313,,29,05,023,,,,,*43
$GPRMC,093717,A,4729.2985,N,01904.7851,E,001.2,358.6,310305,002.9,E*70
$GPGGA,093717,4729.2985,N,01904.7851,E,1,06,2.2,104.8,M,41.0,M,,*4E
$GPGSA,A,3,03,,15,16,18,19,,22,,,,,2.6,2.2,1.5*33
$GPGSV,3,1,11,03,66,293,48,08,03,334,,15,73,047,47,16,33,202,48*78
$GPGSV,3,2,11,18,56,077,46,19,37,301,42,21,29,069,33,22,62,145,48*77
$GPGSV,3,3,11,26,12,037,,27,02,313,,29,05,023,,,,,*43
$GPRMC,093718,A,4729.2987,N,01904.7851,E,001.1,358.6,310305,002.9,E*7E
$GPGGA,093718,4729.2987,N,01904.7851,E,1,06,2.4,105.3,M,41.0,M,,*4F
$GPGSA,A,3,03,,15,16,18,19,,22,,,,,3.1,2.4,2.0*35
$GPGSV,3,1,11,03,66,293,48,08,03,334,,15,73,047,47,16,33,202,48*78
$GPGSV,3,2,11,18,56,077,47,19,37,301,45,21,29,069,33,22,62,145,50*78
$GPGSV,3,3,11,26,12,037,,27,02,313,,29,05,023,,,,,*43
$GPRMC,093719,A,4729.2987,N,01904.7854,E,001.0,358.6,310305,002.9,E*7B
$GPGGA,093719,4729.2987,N,01904.7854,E,1,06,2.4,105.4,M,41.0,M,,*4C
$GPGSA,A,3,03,,15,16,18,19,,22,,,,,3.4,2.4,2.3*33
$GPGSV,3,1,11,03,66,293,47,08,03,334,,15,73,047,46,16,33,202,48*76
$GPGSV,3,2,11,18,56,077,45,19,37,301,44,21,29,069,33,22,62,145,36*7B
$GPGSV,3,3,11,26,12,037,,27,02,313,,29,05,023,,,,,*43
$GPRMC,093720,A,4729.2987,N,01904.7856,E,000.9,358.6,310305,002.9,E*7B
$GPGGA,093720,4729.2987,N,01904.7856,E,1,06,2.8,105.8,M,41.0,M,,*44
$GPGSA,A,3,03,,15,16,18,19,,22,,,,,3.6,2.8,1.0*3D
$GPGSV,3,1,11,03,66,293,47,08,03,334,,15,73,047,45,16,33,202,49*74
$GPGSV,3,2,11,18,56,077,44,19,37,301,44,21,29,069,32,22,62,145,40*7A
$GPGSV,3,3,11,26,12,037,,27,02,313,,29,05,023,,,,,*43
$GPRMC,093721,A,4729.2991,N,01904.7857,E,000.0,358.6,310305,002.9,E*75
$GPGGA,093721,4729.2991,N,01904.7857,E,1,06,2.8,106.0,M,41.0,M,,*48
$GPGSA,A,3,03,,15,16,18,19,,22,,,,,3.9,2.8,1.4*36
$GPGSV,3,1,11,03,66,293,48,08,03,334,,15,73,047,45,16,33,202,49*7B
$GPGSV,3,2,11,18,56,077,43,19,37,301,46,21,29,069,32,22,62,145,41*7E
$GPGSV,3,3,11,26,12,037,,27,02,313,,29,05,023,,,,,*43
$GPRMC,093722,A,4729.2992,N,01904.7858,E,000.0,358.6,310305,002.9,E*7A
$GPGGA,093722,4729.2992,N,01904.7858,E,1,06,2.8,106.2,M,41.0,M,,*45
$GPGSA,A,3,03,,15,16,18,19,,22,,,,,4.1,2.8,1.8*35
$GPGSV,3,1,11,03,66,293,48,08,03,334,,15,73,047,45,16,33,202,49*7B
$GPGSV,3,2,11,18,56,077,43,19,37,301,46,21,29,069,32,22,62,145,40*7F
$GPGSV,3,3,11,26,12,037,,27,02,313,,29,05,023,,,,,*43
$GPRMC,093723,A,4729.2995,N,01904.7859,E,000.0,358.6,310305,002.9,E*7D
$GPGGA,093723,4729.2995,N,01904.7859,E,1,06,1.8,106.1,M,41.0,M,,*42
$GPGSA,A,3,03,,15,16,18,19,,22,,,,,4.1,1.8,2.0*3D
$GPGSV,3,1,11,03,66,293,48,08,03,334,,15,73,047,45,16,33,202,49*7B
$GPGSV,3,2,11,18,56,077,42,19,37,301,46,21,29,069,31,22,62,145,44*79
$GPGSV,3,3,11,26,12,037,,27,02,313,,29,05,023,,,,,*43
$GPRMC,093724,A,4729.2993,N,01904.7858,E,001.0,358.6,310305,002.9,E*7C
$GPGGA,093724,4729.2993,N,01904.7858,E,1,06,2.7,106.0,M,41.0,M,,*4F
$GPGSA,A,3,03,,15,16,18,19,,22,,,,,5.0,2.7,2.6*37
$GPGSV,3,1,11,03,66,293,48,08,03,334,,15,73,047,44,16,33,202,41*72
$GPGSV,3,2,11,18,56,077,41,19,37,301,46,21,29,069,31,22,62,145,44*7A
$GPGSV,3,3,11,26,12,037,,27,02,313,,29,05,023,,,,,*43
$GPRMC,093725,A,4729.2997,N,01904.7859,E,000.0,358.6,310305,002.9,E*79
$GPGGA,093725,4729.2997,N,01904.7859,E,1,06,1.8,105.9,M,41.0,M,,*4D
$GPGSA,A,3,03,,15,16,18,19,,22,,,,,4.4,1.8,2.7*3F
$GPGSV,3,1,11,03,66,293,48,08,03,334,,15,73,047,44,16,33,202,41*72
$GPGSV,3,2,11,18,56,077,41,19,37,301,46,21,29,069,31,22,62,145,44*7A
$GPGSV,3,3,11,26,12,037,,27,02,313,,29,05,023,,,,,*43
$GPRMC,093726,A,4729.2998,N,01904.7858,E,000.0,358.6,310305,002.9,E*74
$GPGGA,093726,4729.2998,N,01904.7858,E,1,06,1.9,106.6,M,41.0,M,,*4D
$GPGSA,A,3,03,,15,16,18,19,,22,,,,,2.7,1.9,1.0*3F
$GPGSV,3,1,11,03,66,293,48,08,03,334,,15,73,047,45,16,33,202,41*73
$GPGSV,3,2,11,18,56,077,44,19,37,301,46,21,29,069,31,22,62,145,46*7D
$GPGSV,3,3,11,26,12,037,,27,02,313,,29,05,023,,,,,*43
$GPRMC,093727,A,4729.2997,N,01904.7857,E,000.0,358.6,310305,002.9,E*75
$GPGGA,093727,4729.2997,N,01904.7857,E,1,06,2.0,107.2,M,41.0,M,,*43
$GPGSA,A,3,03,,15,16,18,19,,22,,,,,2.7,2.0,1.0*35
$GPGSV,3,1,11,03,66,293,47,08,03,334,,15,73,047,46,16,33,202,41*7F
$GPGSV,3,2,11,18,56,077,45,19,37,301,45,21,29,069,31,22,62,145,46*7F
$GPGSV,3,3,11,26,12,037,,27,02,313,,29,05,023,,,,,*43
$GPRMC,093728,A,4729.3000,N,01904.7855,E,000.0,358.6,310305,002.9,E*7E
$GPGGA,093728,4729.3000,N,01904.7855,E,1,06,2.0,107.2,M,41.0,M,,*48
$GPGSA,A,3,03,,15,16,18,19,,22,,,,,2.7,2.0,1.0*35
$GPGSV,3,1,11,03,66,293,46,08,03,334,,15,73,047,45,16,33,202,40*7C
$GPGSV,3,2,11,18,56,077,44,19,37,301,45,21,29,069,31,22,62,145,45*7D
$GPGSV,3,3,11,26,12,037,,27,02,313,,29,05,023,,,,,*43
$GPRMC,093729,A,4729.3001,N,01904.7855,E,000.0,358.6,310305,002.9,E*7E
$GPGGA,093729,4729.3001,N,01904.7855,E,1,06,2.1,107.0,M,41.0,M,,*4B
$GPGSA,A,3,03,,15,16,18,19,,22,,,,,3.1,2.1,1.5*36
$GPGSV,3,1,11,03,66,293,46,08,03,334,,15,73,047,45,16,33,202,39*72
$GPGSV,3,2,11,18,56,077,43,19,37,301,45,21,29,069,31,22,62,145,45*7A
$GPGSV,3,3,11,26,12,037,,27,02,313,,29,05,023,,,,,*43
$GPRMC,093730,A,4729.3002,N,01904.7855,E,000.0,358.6,310305,002.9,E*75
$GPGGA,093730,4729.3002,N,01904.7855,E,1,06,2.1,107.0,M,41.0,M,,*40
$GPGSA,A,3,03,,15,16,18,19,,22,,,,,3.1,2.1,1.5*36
$GPGSV,3,1,11,03,66,293,46,08,03,334,,15,73,047,46,16,33,202,38*70
$GPGSV,3,2,11,18,56,077,45,19,37,301,45,21,29,069,31,22,62,145,48*71
$GPGSV,3,3,11,26,12,037,,27,02,313,,29,05,023,,,,,*43
$GPRMC,093731,A,4729.3003,N,01904.7855,E,000.0,358.6,310305,002.9,E*75
$GPGGA,093731,4729.3003,N,01904.7855,E,1,06,2.2,107.0,M,41.0,M,,*43
$GPGSA,A,3,03,,15,16,18,19,,22,,,,,3.3,2.2,1.8*3A
$GPGSV,3,1,11,03,66,293,48,08,03,334,,15,73,047,46,16,33,202,38*7E
$GPGSV,3,2,11,18,56,077,45,19,37,301,47,21,29,069,31,22,62,145,48*73
$GPGSV,3,3,11,26,12,037,,27,02,313,,29,05,023,,,,,*43
$GPRMC,093732,A,4729.3003,N,01904.7855,E,000.0,358.6,310305,002.9,E*76
$GPGGA,093732,4729.3003,N,01904.7855,E,1,06,2.2,107.0,M,41.0,M,,*40
$GPGSA,A,3,03,,15,16,18,19,,22,,,,,3.3,2.2,1.8*3A
$GPGSV,3,1,11,03,66,293,48,08,03,334,,15,73,047,47,16,33,202,38*7F
$GPGSV,3,2,11,18,56,077,45,19,37,301,47,21,29,069,31,22,62,145,50*7A
$GPGSV,3,3,11,26,12,037,,27,02,313,,29,05,023,,,,,*43
$GPRMC,093733,A,4729.3004,N,01904.7854,E,000.0,358.6,310305,002.9,E*71
$GPGGA,093733,4729.3004,N,01904.7854,E,1,06,2.2,106.8,M,41.0,M,,*4E
$GPGSA,A,3,03,,15,16,18,19,,22,,,,,3.3,2.2,1.8*3A
$GPGSV,3,1,11,03,66,293,48,08,03,334,,15,73,047,48,16,33,202,37*7F
$GPGSV,3,2,11,18,56,077,44,19,37,301,48,21,29,069,31,22,62,145,50*74
$GPGSV,3,3,11,26,12,037,,27,02,313,,29,05,023,,,,,*43
$GPRMC,093734,A,4729.3007,N,01904.7856,E,000.0,358.6,310305,002.9,E*77
$GPGGA,093734,4729.3007,N,01904.7856,E,1,06,2.2,107.0,M,41.0,M,,*41
$GPGSA,A,3,03,,15,16,18,19,,22,,,,,3.3,2.2,1.8*3A
$GPGSV,3,1,11,03,66,293,48,08,03,334,,15,73,047,48,16,33,202,37*7F
$GPGSV,3,2,11,18,56,077,44,19,37,301,48,21,29,069,31,22,62,145,51*75
$GPGSV,3,3,11,26,12,036,,27,02,313,,29,05,023,,,,,*42
$GPRMC,093735,A,4729.3009,N,01904.7857,E,000.0,358.6,310305,002.9,E*79
$GPGGA,093735,4729.3009,N,01904.7857,E,1,06,2.2,107.0,M,41.0,M,,*4F
$GPGSA,A,3,03,,15,16,18,19,,22,,,,,3.3,2.2,1.8*3A
$GPGSV,3,1,11,03,66,293,48,08,03,334,,15,73,047,49,16,33,202,37*7E
$GPGSV,3,2,11,18,56,077,44,19,37,301,48,21,29,069,31,22,62,145,51*75
$GPGSV,3,3,11,26,12,036,,27,02,313,,29,05,023,,,,,*42
$GPRMC,093736,A,4729.3011,N,01904.7859,E,000.0,358.6,310305,002.9,E*7D
$GPGGA,093736,4729.3011,N,01904.7859,E,1,06,2.2,106.9,M,41.0,M,,*43
$GPGSA,A,3,03,,15,16,18,19,,22,,,,,3.3,2.2,1.8*3A
$GPGSV,3,1,11,03,66,293,48,08,03,334,,15,73,047,49,16,33,202,37*7E
$GPGSV,3,2,11,18,56,077,44,19,37,301,49,21,29,069,31,22,62,145,52*77
$GPGSV,3,3,11,26,12,036,,27,02,313,,29,05,023,,,,,*42
$GPRMC,093737,A,4729.3011,N,01904.7860,E,000.0,358.6,310305,002.9,E*76
$GPGGA,093737,4729.3011,N,01904.7860,E,1,06,2.2,106.6,M,41.0,M,,*47
$GPGSA,A,3,03,,15,16,18,19,,22,,,,,3.3,2.2,1.8*3A
$GPGSV,3,1,11,03,66,293,49,08,03,334,,15,73,047,49,16,33,202,36*7E
$GPGSV,3,2,11,18,56,077,45,19,37,301,49,21,29,069,31,22,62,145,52*76
$GPGSV,3,3,11,26,12,036,,27,02,313,,29,05,023,,,,,*42
$GPRMC,093738,A,4729.3012,N,01904.7862,E,000.0,358.6,310305,002.9,E*78
$GPGGA,093738,4729.3012,N,01904.7862,E,1,06,2.2,106.6,M,41.0,M,,*49
$GPGSA,A,3,03,,15,16,18,19,,22,,,,,3.3,2.2,1.8*3A
$GPGSV,3,1,11,03,66,293,49,08,03,334,,15,73,047,50,16,33,202,36*76
$GPGSV,3,2,11,18,56,077,46,19,37,301,50,21,29,069,31,22,62,145,52*7D
$GPGSV,3,3,11,26,12,036,,27,02,313,,29,05,023,,,,,*42
$GPRMC,093739,A,4729.3013,N,01904.7863,E,000.0,358.6,310305,002.9,E*79
$GPGGA,093739,4729.3013,N,01904.7863,E,1,06,2.2,106.4,M,41.0,M,,*4A
$GPGSA,A,3,03,,15,16,18,19,,22,,,,,3.3,2.2,1.8*3A
$GPGSV,3,1,11,03,66,293,49,08,03,334,,15,73,047,50,16,33,202,35*75
$GPGSV,3,2,11,18,56,077,47,19,37,301,49,21,29,069,31,22,62,145,52*74
$GPGSV,3,3,11,26,12,036,,27,02,312,,29,05,023,,,,,*43
$GPRMC,093740,A,4729.3013,N,01904.7865,E,000.0,358.6,310305,002.9,E*71
