$GNGNS,130749.00,4733.9636346,N,01900.5020603,E,AAAA,25,0.68,193.953,39.429,,,V*10
$GNGGA,130749.00,4733.9636346,N,01900.5020603,E,1,12,0.68,193.953,M,39.429,M,,*44
$GNGSA,A,3,15,08,07,28,30,13,14,05,,,,,1.15,0.68,0.93,1*00
$GNGSA,A,3,81,73,79,80,71,70,,,,,,,1.15,0.68,0.93,2*09
$GNGSA,A,3,19,18,04,01,21,,,,,,,,1.15,0.68,0.93,3*05
$GNGSA,A,3,36,19,07,22,21,10,,,,,,,1.15,0.68,0.93,4*0D
$GNGNS,130750.00,4733.9636367,N,01900.5020553,E,AAAA,25,0.68,193.948,39.429,,,V*17
$GNGGA,130750.00,4733.9636367,N,01900.5020553,E,1,12,0.68,193.948,M,39.429,M,,*43
$GNGSA,A,3,15,08,07,28,30,13,14,05,,,,,1.15,0.68,0.93,1*00
$GNGSA,A,3,81,73,79,80,71,70,,,,,,,1.15,0.68,0.93,2*09
$GNGSA,A,3,19,18,04,01,21,,,,,,,,1.15,0.68,0.93,3*05
$GNGSA,A,3,36,19,07,22,21,10,,,,,,,1.15,0.68,0.93,4*0D
$GNGNS,130751.00,4733.9636399,N,01900.5020520,E,AAAA,25,0.68,193.950,39.429,,,V*1A
$GNGGA,130751.00,4733.9636399,N,01900.5020520,E,1,12,0.68,193.950,M,39.429,M,,*4E
$GNGSA,A,3,15,08,07,28,30,13,14,05,,,,,1.15,0.68,0.93,1*00
$GNGSA,A,3,81,73,79,80,71,70,,,,,,,1.15,0.68,0.93,2*09
$GNGSA,A,3,19,18,04,01,21,,,,,,,,1.15,0.68,0.93,3*05
$GNGSA,A,3,36,19,07,22,21,10,,,,,,,1.15,0.68,0.93,4*0D
$GNGNS,130752.00,4733.9636428,N,01900.5020472,E,AAAA,25,0.68,193.943,39.429,,,V*10
$GNGGA,130752.00,4733.9636428,N,01900.5020472,E,1,12,0.68,193.943,M,39.429,M,,*44
$GNGSA,A,3,15,08,07,28,30,13,14,05,,,,,1.15,0.68,0.93,1*00
$GNGSA,A,3,81,73,79,80,71,70,,,,,,,1.15,0.68,0.93,2*09
$GNGSA,A,3,19,18,04,01,21,,,,,,,,1.15,0.68,0.93,3*05
$GNGSA,A,3,36,19,07,22,21,10,,,,,,,1.15,0.68,0.93,4*0D
$GNGNS,130753.00,4733.9636459,N,01900.5020446,E,AAAA,25,0.68,193.944,39.429,,,V*17
$GNGGA,130753.00,4733.9636459,N,01900.5020446,E,1,12,0.68,193.944,M,39.429,M,,*43
$GNGSA,A,3,15,08,07,28,30,13,14,05,,,,,1.15,0.68,0.93,1*00
$GNGSA,A,3,81,73,79,80,71,70,,,,,,,1.15,0.68,0.93,2*09
$GNGSA,A,3,19,18,04,01,21,,,,,,,,1.15,0.68,0.93,3*05
$GNGSA,A,3,36,19,07,22,21,10,,,,,,,1.15,0.68,0.93,4*0D
$GNGNS,130754.00,4733.9636498,N,01900.5020417,E,AAAA,25,0.68,193.948,39.429,,,V*15
$GNGGA,130754.00,4733.9636498,N,01900.5020417,E,1,12,0.68,193.948,M,39.429,M,,*41
$GNGSA,A,3,15,08,07,28,30,13,14,05,,,,,1.15,0.68,0.93,1*00
$GNGSA,A,3,81,73,79,80,71,70,,,,,,,1.15,0.68,0.93,2*09
$GNGSA,A,3,19,18,04,01,21,,,,,,,,1.15,0.68,0.93,3*05
$GNGSA,A,3,36,19,07,22,21,10,,,,,,,1.15,0.68,0.93,4*0D
$GNGNS,130755.00,4733.9636538,N,01900.5020383,E,AAAA,25,0.68,193.948,39.429,,,V*15
$GNGGA,130755.00,4733.9636538,N,01900.5020383,E,1,12,0.68,193.948,M,39.429,M,,*41
$GNGSA,A,3,15,08,07,28,30,13,14,05,,,,,1.15,0.68,0.93,1*00
$GNGSA,A,3,81,73,79,80,71,70,,,,,,,1.15,0.68,0.93,2*09
$GNGSA,A,3,19,18,04,01,21,,,,,,,,1.15,0.68,0.93,3*05
$GNGSA,A,3,36,19,07,22,21,10,,,,,,,1.15,0.68,0.93,4*0D
$GNGNS,130756.00,4733.9636583,N,01900.5020365,E,AAAA,25,0.68,193.951,39.429,,,V*16
$GNGGA,130756.00,4733.9636583,N,01900.5020365,E,1,12,0.68,193.951,M,39.429,M,,*42
$GNGSA,A,3,15,08,07,28,30,13,14,05,,,,,1.15,0.68,0.93,1*00
$GNGSA,A,3,81,73,79,80,71,70,,,,,,,1.15,0.68,0.93,2*09
$GNGSA,A,3,19,18,04,01,21,,,,,,,,1.15,0.68,0.93,3*05
$GNGSA,A,3,36,19,07,22,21,10,,,,,,,1.15,0.68,0.93,4*0D
$GNGNS,130757.00,4733.9636625,N,01900.5020353,E,AAAA,25,0.68,193.957,39.429,,,V*1B
$GNGGA,130757.00,4733.9636625,N,01900.5020353,E,1,12,0.68,193.957,M,39.429,M,,*4F
$GNGSA,A,3,15,08,07,28,30,13,14,05,,,,,1.15,0.68,0.93,1*00
$GNGSA,A,3,81,73,79,80,71,70,,,,,,,1.15,0.68,0.93,2*09
$GNGSA,A,3,19,18,04,01,21,,,,,,,,1.15,0.68,0.93,3*05
$GNGSA,A,3,36,19,07,22,21,10,,,,,,,1.15,0.68,0.93,4*0D
$GNGNS,130758.00,4733.9633191,N,01900.5012567,E,DDDD,25,0.72,193.444,39.429,1.0,0207,V*37
$GNGGA,130758.00,4733.9633191,N,01900.5012567,E,2,12,0.72,193.444,M,39.429,M,1.0,0207*60
$GNGSA,A,3,15,08,07,28,30,13,14,05,,,,,1.21,0.72,0.97,1*08
$GNGSA,A,3,81,73,79,80,71,70,,,,,,,1.21,0.72,0.97,2*01
$GNGSA,A,3,19,18,04,01,21,,,,,,,,1.21,0.72,0.97,3*0D
$GNGSA,A,3,36,19,07,22,21,10,,,,,,,1.21,0.72,0.97,4*05
$GNGNS,130759.00,4733.9626874,N,01900.5006569,E,RRRR,25,0.72,190.592,39.430,1.0,0207,V*3A
$GNGGA,130759.00,4733.9626874,N,01900.5006569,E,4,12,0.72,190.592,M,39.430,M,1.0,0207*6B
$GNGSA,A,3,15,08,07,28,30,13,14,05,,,,,1.21,0.72,0.97,1*08
$GNGSA,A,3,81,73,79,80,71,70,,,,,,,1.21,0.72,0.97,2*01
$GNGSA,A,3,19,18,04,01,21,,,,,,,,1.21,0.72,0.97,3*0D
$GNGSA,A,3,36,19,07,22,21,10,,,,,,,1.21,0.72,0.97,4*05
$GNGNS,130800.00,4733.9626858,N,01900.5006574,E,RRRR,25,0.72,190.579,39.430,1.0,0207,V*3E
$GNGGA,130800.00,4733.9626858,N,01900.5006574,E,4,12,0.72,190.579,M,39.430,M,1.0,0207*6F
$GNGSA,A,3,15,08,07,28,30,13,14,05,,,,,1.20,0.72,0.97,1*09
$GNGSA,A,3,81,73,79,80,71,70,,,,,,,1.20,0.72,0.97,2*00
$GNGSA,A,3,19,18,04,01,21,,,,,,,,1.20,0.72,0.97,3*0C
$GNGSA,A,3,36,19,07,22,21,10,,,,,,,1.20,0.72,0.97,4*04
$GNGNS,130801.00,4733.9626862,N,01900.5006580,E,RRRR,25,0.72,190.576,39.430,1.0,0207,V*32
$GNGGA,130801.00,4733.9626862,N,01900.5006580,E,4,12,0.72,190.576,M,39.430,M,1.0,0207*63
$GNGSA,A,3,15,08,07,28,30,13,14,05,,,,,1.20,0.72,0.97,1*09
$GNGSA,A,3,81,73,79,80,71,70,,,,,,,1.20,0.72,0.97,2*00
$GNGSA,A,3,19,18,04,01,21,,,,,,,,1.20,0.72,0.97,3*0C
$GNGSA,A,3,36,19,07,22,21,10,,,,,,,1.20,0.72,0.97,4*04
$GNGNS,130802.00,4733.9626867,N,01900.5006576,E,RRRR,25,0.72,190.582,39.430,1.0,0207,V*36
$GNGGA,130802.00,4733.9626867,N,01900.5006576,E,4,12,0.72,190.582,M,39.430,M,1.0,0207*67
$GNGSA,A,3,15,08,07,28,30,13,14,05,,,,,1.20,0.72,0.97,1*09
$GNGSA,A,3,81,73,79,80,71,70,,,,,,,1.20,0.72,0.97,2*00
$GNGSA,A,3,19,18,04,01,21,,,,,,,,1.20,0.72,0.97,3*0C
$GNGSA,A,3,36,19,07,22,21,10,,,,,,,1.20,0.72,0.97,4*04
$GNGNS,130803.00,4733.9626871,N,01900.5006575,E,RRRR,25,0.72,190.585,39.430,1.0,0207,V*34
$GNGGA,130803.00,4733.9626871,N,01900.5006575,E,4,12,0.72,190.585,M,39.430,M,1.0,0207*65
$GNGSA,A,3,15,08,07,28,30,13,14,05,,,,,1.20,0.72,0.97,1*09
$GNGSA,A,3,81,73,79,80,71,70,,,,,,,1.20,0.72,0.97,2*00
$GNGSA,A,3,19,18,04,01,21,,,,,,,,1.20,0.72,0.97,3*0C
$GNGSA,A,3,36,19,07,22,21,10,,,,,,,1.20,0.72,0.97,4*04
$GNGNS,130804.00,4733.9626871,N,01900.5006574,E,RRRR,25,0.72,190.592,39.430,1.0,0207,V*34
$GNGGA,130804.00,4733.9626871,N,01900.5006574,E,4,12,0.72,190.592,M,39.430,M,1.0,0207*65
$GNGSA,A,3,15,08,07,28,30,13,14,05,,,,,1.20,0.72,0.97,1*09
$GNGSA,A,3,81,73,79,80,71,70,,,,,,,1.20,0.72,0.97,2*00
$GNGSA,A,3,19,18,04,01,21,,,,,,,,1.20,0.72,0.97,3*0C
$GNGSA,A,3,36,19,07,22,21,10,,,,,,,1.20,0.72,0.97,4*04
$GNGNS,130805.00,4733.9626858,N,01900.5006574,E,RRRR,25,0.72,190.589,39.430,1.0,0207,V*34
$GNGGA,130805.00,4733.9626858,N,01900.5006574,E,4,12,0.72,190.589,M,39.430,M,1.0,0207*65
$GNGSA,A,3,15,08,07,28,30,13,14,05,,,,,1.20,0.72,0.97,1*09
$GNGSA,A,3,81,73,79,80,71,70,,,,,,,1.20,0.72,0.97,2*00
$GNGSA,A,3,19,18,04,01,21,,,,,,,,1.20,0.72,0.97,3*0C
$GNGSA,A,3,36,19,07,22,21,10,,,,,,,1.20,0.72,0.97,4*04
$GNGNS,130806.00,4733.9626834,N,01900.5006586,E,RRRR,25,0.72,190.582,39.430,1.0,0207,V*3B
$GNGGA,130806.00,4733.9626834,N,01900.5006586,E,4,12,0.72,190.582,M,39.430,M,1.0,0207*6A
$GNGSA,A,3,15,08,07,28,30,13,14,05,,,,,1.20,0.72,0.97,1*09
$GNGSA,A,3,81,73,79,80,71,70,,,,,,,1.20,0.72,0.97,2*00
$GNGSA,A,3,19,18,04,01,21,,,,,,,,1.20,0.72,0.97,3*0C
$GNGSA,A,3,36,19,07,22,21,10,,,,,,,1.20,0.72,0.97,4*04
$GNGNS,130807.00,4733.9626845,N,01900.5006564,E,RRRR,25,0.72,190.582,39.430,1.0,0207,V*30
$GNGGA,130807.00,4733.9626845,N,01900.5006564,E,4,12,0.72,190.582,M,39.430,M,1.0,0207*61
$GNGSA,A,3,15,08,07,28,30,13,14,05,,,,,1.20,0.72,0.97,1*09
$GNGSA,A,3,81,73,79,80,71,70,,,,,,,1.20,0.72,0.97,2*00
$GNGSA,A,3,19,18,04,01,21,,,,,,,,1.20,0.72,0.97,3*0C
$GNGSA,A,3,36,19,07,22,21,10,,,,,,,1.20,0.72,0.97,4*04
$GNGNS,130808.00,4733.9626840,N,01900.5006558,E,RRRR,25,0.72,190.582,39.430,1.0,0207,V*35
$GNGGA,130808.00,4733.9626840,N,01900.5006558,E,4,12,0.72,190.582,M,39.430,M,1.0,0207*64
$GNGSA,A,3,15,08,07,28,30,13,14,05,,,,,1.20,0.72,0.97,1*09
$GNGSA,A,3,81,73,79,80,71,70,,,,,,,1.20,0.72,0.97,2*00
$GNGSA,A,3,19,18,04,01,21,,,,,,,,1.20,0.72,0.97,3*0C
$GNGSA,A,3,36,19,07,22,21,10,,,,,,,1.20,0.72,0.97,4*04
$GNGNS,130809.00,4733.9626839,N,01900.5006577,E,RRRR,25,0.72,190.584,39.430,1.0,0207,V*31
$GNGGA,130809.00,4733.9626839,N,01900.5006577,E,4,12,0.72,190.584,M,39.430,M,1.0,0207*60
$GNGSA,A,3,15,08,07,28,30,13,14,05,,,,,1.20,0.72,0.97,1*09
$GNGSA,A,3,81,73,79,80,71,70,,,,,,,1.20,0.72,0.97,2*00
$GNGSA,A,3,19,18,04,01,21,,,,,,,,1.20,0.72,0.97,3*0C
$GNGSA,A,3,36,19,07,22,21,10,,,,,,,1.20,0.72,0.97,4*04
$GNGNS,130810.00,4733.9626835,N,01900.5006580,E,RRRR,25,0.72,190.583,39.430,1.0,0207,V*3A
$GNGGA,130810.00,4733.9626835,N,01900.5006580,E,4,12,0.72,190.583,M,39.430,M,1.0,0207*6B
$GNGSA,A,3,15,08,07,28,30,13,14,05,,,,,1.20,0.72,0.97,1*09
$GNGSA,A,3,81,73,79,80,71,70,,,,,,,1.20,0.72,0.97,2*00
$GNGSA,A,3,19,18,04,01,21,,,,,,,,1.20,0.72,0.97,3*0C
$GNGSA,A,3,36,19,07,22,21,10,,,,,,,1.20,0.72,0.97,4*04
$GNGNS,130811.00,4733.9626883,N,01900.5006534,E,RRRR,25,0.72,190.579,39.430,1.0,0207,V*3C
$GNGGA,130811.00,4733.9626883,N,01900.5006534,E,4,12,0.72,190.579,M,39.430,M,1.0,0207*6D
$GNGSA,A,3,15,08,07,28,30,13,14,05,,,,,1.20,0.72,0.97,1*09
$GNGSA,A,3,81,73,79,80,71,70,,,,,,,1.20,0.72,0.97,2*00
$GNGSA,A,3,19,18,04,01,21,,,,,,,,1.20,0.72,0.97,3*0C
$GNGSA,A,3,36,19,07,22,21,10,,,,,,,1.20,0.72,0.97,4*04
$GNGNS,130812.00,4733.9626889,N,01900.5006535,E,RRRR,25,0.72,190.577,39.430,1.0,0207,V*3A
$GNGGA,130812.00,4733.9626889,N,01900.5006535,E,4,12,0.72,190.577,M,39.430,M,1.0,0207*6B
$GNGSA,A,3,15,08,07,28,30,13,14,05,,,,,1.20,0.72,0.97,1*09
$GNGSA,A,3,81,73,79,80,71,70,,,,,,,1.20,0.72,0.97,2*00
$GNGSA,A,3,19,18,04,01,21,,,,,,,,1.20,0.72,0.97,3*0C
$GNGSA,A,3,36,19,07,22,21,10,,,,,,,1.20,0.72,0.97,4*04
$GNGNS,130813.00,4733.9626884,N,01900.5006522,E,RRRR,25,0.72,190.580,39.430,1.0,0207,V*38
$GNGGA,130813.00,4733.9626884,N,01900.5006522,E,4,12,0.72,190.580,M,39.430,M,1.0,0207*69
$GNGSA,A,3,15,08,07,28,30,13,14,05,,,,,1.20,0.72,0.97,1*09
$GNGSA,A,3,81,73,79,80,71,70,,,,,,,1.20,0.72,0.97,2*00
$GNGSA,A,3,19,18,04,01,21,,,,,,,,1.20,0.72,0.97,3*0C
$GNGSA,A,3,36,19,07,22,21,10,,,,,,,1.20,0.72,0.97,4*04
$GNGNS,130814.00,4733.9626883,N,01900.5006520,E,RRRR,25,0.72,190.581,39.430,1.0,0207,V*3B
$GNGGA,130814.00,4733.9626883,N,01900.5006520,E,4,12,0.72,190.581,M,39.430,M,1.0,0207*6A
$GNGSA,A,3,15,08,07,28,30,13,14,05,,,,,1.20,0.72,0.97,1*09
$GNGSA,A,3,81,73,79,80,71,70,,,,,,,1.20,0.72,0.97,2*00
$GNGSA,A,3,19,18,04,01,21,,,,,,,,1.20,0.72,0.97,3*0C
$GNGSA,A,3,36,19,07,22,21,10,,,,,,,1.20,0.72,0.97,4*04
$GNGNS,130815.00,4733.9626876,N,01900.5006521,E,RRRR,25,0.72,190.579,39.430,1.0,0207,V*36
$GNGGA,130815.00,4733.9626876,N,01900.5006521,E,4,12,0.72,190.579,M,39.430,M,1.0,0207*67
$GNGSA,A,3,15,08,07,28,30,13,14,05,,,,,1.20,0.72,0.97,1*09
$GNGSA,A,3,81,73,79,80,71,70,,,,,,,1.20,0.72,0.97,2*00
$GNGSA,A,3,19,18,04,01,21,,,,,,,,1.20,0.72,0.97,3*0C
$GNGSA,A,3,36,19,07,22,21,10,,,,,,,1.20,0.72,0.97,4*04
$GNGNS,130816.00,4733.9626868,N,01900.5006528,E,RRRR,25,0.72,190.579,39.430,1.0,0207,V*33
$GNGGA,130816.00,4733.9626868,N,01900.5006528,E,4,12,0.72,190.579,M,39.430,M,1.0,0207*62
$GNGSA,A,3,15,08,07,28,30,13,14,05,,,,,1.20,0.72,0.97,1*09
$GNGSA,A,3,81,73,79,80,71,70,,,,,,,1.20,0.72,0.97,2*00
$GNGSA,A,3,19,18,04,01,21,,,,,,,,1.20,0.72,0.97,3*0C
$GNGSA,A,3,36,19,07,22,21,10,,,,,,,1.20,0.72,0.97,4*04
$GNGNS,130817.00,4733.9626859,N,01900.5006529,E,RRRR,25,0.72,190.581,39.430,1.0,0207,V*36
$GNGGA,130817.00,4733.9626859,N,01900.5006529,E,4,12,0.72,190.581,M,39.430,M,1.0,0207*67
$GNGSA,A,3,15,08,07,28,30,13,14,05,,,,,1.20,0.72,0.97,1*09
$GNGSA,A,3,81,73,79,80,71,70,,,,,,,1.20,0.72,0.97,2*00
$GNGSA,A,3,19,18,04,01,21,,,,,,,,1.20,0.72,0.97,3*0C
$GNGSA,A,3,36,19,07,22,21,10,,,,,,,1.20,0.72,0.97,4*04
$GNGNS,130818.00,4733.9626856,N,01900.5006525,E,RRRR,25,0.72,190.579,39.430,1.0,0207,V*3D
$GNGGA,130818.00,4733.9626856,N,01900.5006525,E,4,12,0.72,190.579,M,39.430,M,1.0,0207*6C
$GNGSA,A,3,15,08,07,28,30,13,14,05,,,,,1.20,0.72,0.97,1*09
$GNGSA,A,3,81,73,79,80,71,70,,,,,,,1.20,0.72,0.97,2*00
$GNGSA,A,3,19,18,04,01,21,,,,,,,,1.20,0.72,0.97,3*0C
$GNGSA,A,3,36,19,07,22,21,10,,,,,,,1.20,0.72,0.97,4*04
$GNGNS,130819.00,4733.9626854,N,01900.5006534,E,RRRR,25,0.72,190.578,39.430,1.0,0207,V*3F
$GNGGA,130819.00,4733.9626854,N,01900.5006534,E,4,12,0.72,190.578,M,39.430,M,1.0,0207*6E
$GNGSA,A,3,15,08,07,28,30,13,14,05,,,,,1.20,0.72,0.97,1*09
$GNGSA,A,3,81,73,79,80,71,70,,,,,,,1.20,0.72,0.97,2*00
$GNGSA,A,3,19,18,04,01,21,,,,,,,,1.20,0.72,0.97,3*0C
$GNGSA,A,3,36,19,07,22,21,10,,,,,,,1.20,0.72,0.97,4*04
$GNGNS,130820.00,4733.9626856,N,01900.5006542,E,RRRR,25,0.72,190.580,39.430,1.0,0207,V*31
$GNGGA,130820.00,4733.9626856,N,01900.5006542,E,4,12,0.72,190.580,M,39.430,M,1.0,0207*60
$GNGSA,A,3,15,08,07,28,30,13,14,05,,,,,1.20,0.72,0.97,1*09
$GNGSA,A,3,81,73,79,80,71,70,,,,,,,1.20,0.72,0.97,2*00
$GNGSA,A,3,19,18,04,01,21,,,,,,,,1.20,0.72,0.97,3*0C
$GNGSA,A,3,36,19,07,22,21,10,,,,,,,1.20,0.72,0.97,4*04
$GNGNS,130821.00,4733.9626847,N,01900.5006550,E,RRRR,25,0.72,190.582,39.430,1.0,0207,V*31
$GNGGA,130821.00,4733.9626847,N,01900.5006550,E,4,12,0.72,190.582,M,39.430,M,1.0,0207*60
$GNGSA,A,3,15,08,07,28,30,13,14,05,,,,,1.20,0.72,0.97,1*09
$GNGSA,A,3,81,73,79,80,71,70,,,,,,,1.20,0.72,0.97,2*00
$GNGSA,A,3,19,18,04,01,21,,,,,,,,1.20,0.72,0.97,3*0C
$GNGSA,A,3,36,19,07,22,21,10,,,,,,,1.20,0.72,0.97,4*04
$GNGNS,130822.00,4733.9626854,N,01900.5006545,E,RRRR,25,0.72,190.584,39.430,1.0,0207,V*32
$GNGGA,130822.00,4733.9626854,N,01900.5006545,E,4,12,0.72,190.584,M,39.430,M,1.0,0207*63
$GNGSA,A,3,15,08,07,28,30,13,14,05,,,,,1.20,0.72,0.97,1*09
$GNGSA,A,3,81,73,79,80,71,70,,,,,,,1.20,0.72,0.97,2*00
$GNGSA,A,3,19,18,04,01,21,,,,,,,,1.20,0.72,0.97,3*0C
$GNGSA,A,3,36,19,07,22,21,10,,,,,,,1.20,0.72,0.97,4*04
$GNGNS,130823.00,4733.9626852,N,01900.5006556,E,RRRR,25,0.71,190.582,39.430,1.0,0207,V*32
$GNGGA,130823.00,4733.9626852,N,01900.5006556,E,4,12,0.71,190.582,M,39.430,M,1.0,0207*63
$GNGSA,A,3,15,08,07,28,30,13,14,05,,,,,1.20,0.71,0.97,1*0A
$GNGSA,A,3,81,73,79,80,71,70,,,,,,,1.20,0.71,0.97,2*03
$GNGSA,A,3,19,18,04,01,21,,,,,,,,1.20,0.71,0.97,3*0F
$GNGSA,A,3,36,19,07,22,21,10,,,,,,,1.20,0.71,0.97,4*07
$GNGNS,130824.00,4733.9626840,N,01900.5006536,E,RRRR,25,0.71,190.576,39.430,1.0,0207,V*3B
$GNGGA,130824.00,4733.9626840,N,01900.5006536,E,4,12,0.71,190.576,M,39.430,M,1.0,0207*6A
$GNGSA,A,3,15,08,07,28,30,13,14,05,,,,,1.20,0.71,0.97,1*0A
$GNGSA,A,3,81,73,79,80,71,70,,,,,,,1.20,0.71,0.97,2*03
$GNGSA,A,3,19,18,04,01,21,,,,,,,,1.20,0.71,0.97,3*0F
$GNGSA,A,3,36,19,07,22,21,10,,,,,,,1.20,0.71,0.97,4*07
$GNGNS,130825.00,4733.9626828,N,01900.5006526,E,RRRR,25,0.71,190.572,39.430,1.0,0207,V*31
$GNGGA,130825.00,4733.9626828,N,01900.5006526,E,4,12,0.71,190.572,M,39.430,M,1.0,0207*60
$GNGSA,A,3,15,08,07,28,30,13,14,05,,,,,1.20,0.71,0.97,1*0A
$GNGSA,A,3,81,73,79,80,71,70,,,,,,,1.20,0.71,0.97,2*03
$GNGSA,A,3,19,18,04,01,21,,,,,,,,1.20,0.71,0.97,3*0F
$GNGSA,A,3,36,19,07,22,21,10,,,,,,,1.20,0.71,0.97,4*07
$GNGNS,130826.00,4733.9626840,N,01900.5006520,E,RRRR,25,0.71,190.572,39.430,1.0,0207,V*3A
$GNGGA,130826.00,4733.9626840,N,01900.5006520,E,4,12,0.71,190.572,M,39.430,M,1.0,0207*6B
$GNGSA,A,3,15,08,07,28,30,13,14,05,,,,,1.20,0.71,0.97,1*0A
$GNGSA,A,3,81,73,79,80,71,70,,,,,,,1.20,0.71,0.97,2*03
$GNGSA,A,3,19,18,04,01,21,,,,,,,,1.20,0.71,0.97,3*0F
$GNGSA,A,3,36,19,07,22,21,10,,,,,,,1.20,0.71,0.97,4*07
$GNGNS,130827.00,4733.9626847,N,01900.5006533,E,RRRR,25,0.71,190.575,39.430,1.0,0207,V*39
$GNGGA,130827.00,4733.9626847,N,01900.5006533,E,4,12,0.71,190.575,M,39.430,M,1.0,0207*68
$GNGSA,A,3,15,08,07,28,30,13,14,05,,,,,1.20,0.71,0.97,1*0A
$GNGSA,A,3,81,73,79,80,71,70,,,,,,,1.20,0.71,0.97,2*03
$GNGSA,A,3,19,18,04,01,21,,,,,,,,1.20,0.71,0.97,3*0F
$GNGSA,A,3,36,19,07,22,21,10,,,,,,,1.20,0.71,0.97,4*07
$GNGNS,130828.00,4733.9626848,N,01900.5006540,E,RRRR,25,0.71,190.576,39.430,1.0,0207,V*3E
$GNGGA,130828.00,4733.9626848,N,01900.5006540,E,4,12,0.71,190.576,M,39.430,M,1.0,0207*6F
$GNGSA,A,3,15,08,07,28,30,13,14,05,,,,,1.20,0.71,0.97,1*0A
$GNGSA,A,3,81,73,79,80,71,70,,,,,,,1.20,0.71,0.97,2*03
$GNGSA,A,3,19,18,04,01,21,,,,,,,,1.20,0.71,0.97,3*0F
$GNGSA,A,3,36,19,07,22,21,10,,,,,,,1.20,0.71,0.97,4*07
$GNGNS,130829.00,4733.9626833,N,01900.5006543,E,RRRR,25,0.71,190.569,39.430,1.0,0207,V*3E
$GNGGA,130829.00,4733.9626833,N,01900.5006543,E,4,12,0.71,190.569,M,39.430,M,1.0,0207*6F
$GNGSA,A,3,15,08,07,28,30,13,14,05,,,,,1.20,0.71,0.97,1*0A
$GNGSA,A,3,81,73,79,80,71,70,,,,,,,1.20,0.71,0.97,2*03
$GNGSA,A,3,19,18,04,01,21,,,,,,,,1.20,0.71,0.97,3*0F
$GNGSA,A,3,36,19,07,22,21,10,,,,,,,1.20,0.71,0.97,4*07
$GNGNS,130830.00,4733.9626804,N,01900.5006531,E,RRRR,25,0.71,190.567,39.430,1.0,0207,V*39
$GNGGA,130830.00,4733.9626804,N,01900.5006531,E,4,12,0.71,190.567,M,39.430,M,1.0,0207*68
$GNGSA,A,3,15,08,07,28,30,13,14,05,,,,,1.20,0.71,0.97,1*0A
$GNGSA,A,3,81,73,79,80,71,70,,,,,,,1.20,0.71,0.97,2*03
$GNGSA,A,3,19,18,04,01,21,,,,,,,,1.20,0.71,0.97,3*0F
$GNGSA,A,3,36,19,07,22,21,10,,,,,,,1.20,0.71,0.97,4*07
$GNGNS,130831.00,4733.9626807,N,01900.5006538,E,RRRR,25,0.71,190.569,39.430,1.0,0207,V*3C
$GNGGA,130831.00,4733.9626807,N,01900.5006538,E,4,12,0.71,190.569,M,39.430,M,1.0,0207*6D
$GNGSA,A,3,15,08,07,28,30,13,14,05,,,,,1.20,0.71,0.97,1*0A
$GNGSA,A,3,81,73,79,80,71,70,,,,,,,1.20,0.71,0.97,2*03
$GNGSA,A,3,19,18,04,01,21,,,,,,,,1.20,0.71,0.97,3*0F
$GNGSA,A,3,36,19,07,22,21,10,,,,,,,1.20,0.71,0.97,4*07
$GNGNS,130832.00,4733.9626811,N,01900.5006550,E,RRRR,25,0.71,190.574,39.430,1.0,0207,V*3A
$GNGGA,130832.00,4733.9626811,N,01900.5006550,E,4,12,0.71,190.574,M,39.430,M,1.0,0207*6B
$GNGSA,A,3,15,08,07,28,30,13,14,05,,,,,1.20,0.71,0.97,1*0A
$GNGSA,A,3,81,73,79,80,71,70,,,,,,,1.20,0.71,0.97,2*03
$GNGSA,A,3,19,18,04,01,21,,,,,,,,1.20,0.71,0.97,3*0F
$GNGSA,A,3,36,19,07,22,21,10,,,,,,,1.20,0.71,0.97,4*07
$GNGNS,130833.00,4733.9626820,N,01900.5006537,E,RRRR,25,0.71,190.575,39.430,1.0,0207,V*39
$GNGGA,130833.00,4733.9626820,N,01900.5006537,E,4,12,0.71,190.575,M,39.430,M,1.0,0207*68
$GNGSA,A,3,15,08,07,28,30,13,14,05,,,,,1.20,0.71,0.97,1*0A
$GNGSA,A,3,81,73,79,80,71,70,,,,,,,1.20,0.71,0.97,2*03
$GNGSA,A,3,19,18,04,01,21,,,,,,,,1.20,0.71,0.97,3*0F
$GNGSA,A,3,36,19,07,22,21,10,,,,,,,1.20,0.71,0.97,4*07
$GNGNS,130834.00,4733.9626828,N,01900.5006520,E,RRRR,25,0.71,190.573,39.430,1.0,0207,V*36
$GNGGA,130834.00,4733.9626828,N,01900.5006520,E,4,12,0.71,190.573,M,39.430,M,1.0,0207*67
$GNGSA,A,3,15,08,07,28,30,13,14,05,,,,,1.20,0.71,0.97,1*0A
$GNGSA,A,3,81,73,79,80,71,70,,,,,,,1.20,0.71,0.97,2*03
$GNGSA,A,3,19,18,04,01,21,,,,,,,,1.20,0.71,0.97,3*0F
$GNGSA,A,3,36,19,07,22,21,10,,,,,,,1.20,0.71,0.97,4*07
$GNGNS,130835.00,4733.9626816,N,01900.5006532,E,RRRR,25,0.71,190.577,39.430,1.0,0207,V*3D
$GNGGA,130835.00,4733.9626816,N,01900.5006532,E,4,12,0.71,190.577,M,39.430,M,1.0,0207*6C
$GNGSA,A,3,15,08,07,28,30,13,14,05,,,,,1.20,0.71,0.97,1*0A
$GNGSA,A,3,81,73,79,80,71,70,,,,,,,1.20,0.71,0.97,2*03
$GNGSA,A,3,19,18,04,01,21,,,,,,,,1.20,0.71,0.97,3*0F
$GNGSA,A,3,36,19,07,22,21,10,,,,,,,1.20,0.71,0.97,4*07
$GNGNS,130836.00,4733.9626819,N,01900.5006537,E,RRRR,25,0.71,190.570,39.430,1.0,0207,V*33
$GNGGA,130836.00,4733.9626819,N,01900.5006537,E,4,12,0.71,190.570,M,39.430,M,1.0,0207*62
$GNGSA,A,3,15,08,07,28,30,13,14,05,,,,,1.20,0.71,0.97,1*0A
$GNGSA,A,3,81,73,79,80,71,70,,,,,,,1.20,0.71,0.97,2*03
$GNGSA,A,3,19,18,04,01,21,,,,,,,,1.20,0.71,0.97,3*0F
$GNGSA,A,3,36,19,07,22,21,10,,,,,,,1.20,0.71,0.97,4*07
$GNGNS,130837.00,4733.9626828,N,01900.5006553,E,RRRR,25,0.71,190.576,39.430,1.0,0207,V*34
$GNGGA,130837.00,4733.9626828,N,01900.5006553,E,4,12,0.71,190.576,M,39.430,M,1.0,0207*65
$GNGSA,A,3,15,08,07,28,30,13,14,05,,,,,1.20,0.71,0.97,1*0A
$GNGSA,A,3,81,73,79,80,71,70,,,,,,,1.20,0.71,0.97,2*03
$GNGSA,A,3,19,18,04,01,21,,,,,,,,1.20,0.71,0.97,3*0F
$GNGSA,A,3,36,19,07,22,21,10,,,,,,,1.20,0.71,0.97,4*07
$GNGNS,130838.00,4733.9626806,N,01900.5006550,E,RRRR,25,0.71,190.564,39.430,1.0,0207,V*37
$GNGGA,130838.00,4733.9626806,N,01900.5006550,E,4,12,0.71,190.564,M,39.430,M,1.0,0207*66
$GNGSA,A,3,15,08,07,28,30,13,14,05,,,,,1.20,0.71,0.97,1*0A
$GNGSA,A,3,81,73,79,80,71,70,,,,,,,1.20,0.71,0.97,2*03
$GNGSA,A,3,19,18,04,01,21,,,,,,,,1.20,0.71,0.97,3*0F
$GNGSA,A,3,36,19,07,22,21,10,,,,,,,1.20,0.71,0.97,4*07
$GNGNS,130839.00,4733.9626812,N,01900.5006559,E,RRRR,25,0.71,190.565,39.430,1.0,0207,V*3B
$GNGGA,130839.00,4733.9626812,N,01900.5006559,E,4,12,0.71,190.565,M,39.430,M,1.0,0207*6A
$GNGSA,A,3,15,08,07,28,30,13,14,05,,,,,1.20,0.71,0.97,1*0A
$GNGSA,A,3,81,73,79,80,71,70,,,,,,,1.20,0.71,0.97,2*03
$GNGSA,A,3,19,18,04,01,21,,,,,,,,1.20,0.71,0.97,3*0F
$GNGSA,A,3,36,19,07,22,21,10,,,,,,,1.20,0.71,0.97,4*07
$GNGNS,130840.00,4733.9626821,N,01900.5006558,E,RRRR,25,0.71,190.581,39.430,1.0,0207,V*3E
$GNGGA,130840.00,4733.9626821,N,01900.5006558,E,4,12,0.71,190.581,M,39.430,M,1.0,0207*6F
$GNGSA,A,3,15,08,07,28,30,13,14,05,,,,,1.20,0.71,0.97,1*0A
$GNGSA,A,3,81,73,79,80,71,70,,,,,,,1.20,0.71,0.97,2*03
$GNGSA,A,3,19,18,04,01,21,,,,,,,,1.20,0.71,0.97,3*0F
$GNGSA,A,3,36,19,07,22,21,10,,,,,,,1.20,0.71,0.97,4*07
$GNGNS,130841.00,4733.9626809,N,01900.5006541,E,RRRR,25,0.71,190.577,39.430,1.0,0207,V*34
$GNGGA,130841.00,4733.9626809,N,01900.5006541,E,4,12,0.71,190.577,M,39.430,M,1.0,0207*65
$GNGSA,A,3,15,08,07,28,30,13,14,05,,,,,1.20,0.71,0.96,1*0B
$GNGSA,A,3,81,73,79,80,71,70,,,,,,,1.20,0.71,0.96,2*02
$GNGSA,A,3,19,18,04,01,21,,,,,,,,1.20,0.71,0.96,3*0E
$GNGSA,A,3,36,19,07,22,21,10,,,,,,,1.20,0.71,0.96,4*06
$GNGNS,130842.00,4733.9626818,N,01900.5006559,E,RRRR,25,0.71,190.582,39.430,1.0,0207,V*34
$GNGGA,130842.00,4733.9626818,N,01900.5006559,E,4,12,0.71,190.582,M,39.430,M,1.0,0207*65
$GNGSA,A,3,15,08,07,28,30,13,14,05,,,,,1.20,0.71,0.96,1*0B
$GNGSA,A,3,81,73,79,80,71,70,,,,,,,1.20,0.71,0.96,2*02
$GNGSA,A,3,19,18,04,01,21,,,,,,,,1.20,0.71,0.96,3*0E
$GNGSA,A,3,36,19,07,22,21,10,,,,,,,1.20,0.71,0.96,4*06
$GNGNS,130843.00,4733.9626841,N,01900.5006568,E,RRRR,25,0.71,190.582,39.430,1.0,0207,V*3B
$GNGGA,130843.00,4733.9626841,N,01900.5006568,E,4,12,0.71,190.582,M,39.430,M,1.0,0207*6A
$GNGSA,A,3,15,08,07,28,30,13,14,05,,,,,1.20,0.71,0.96,1*0B
$GNGSA,A,3,81,73,79,80,71,70,,,,,,,1.20,0.71,0.96,2*02
$GNGSA,A,3,19,18,04,01,21,,,,,,,,1.20,0.71,0.96,3*0E
$GNGSA,A,3,36,19,07,22,21,10,,,,,,,1.20,0.71,0.96,4*06
$GNGNS,130844.00,4733.9626833,N,01900.5006565,E,RRRR,25,0.71,190.580,39.430,1.0,0207,V*36
$GNGGA,130844.00,4733.9626833,N,01900.5006565,E,4,12,0.71,190.580,M,39.430,M,1.0,0207*67
$GNGSA,A,3,15,08,07,28,30,13,14,05,,,,,1.20,0.71,0.96,1*0B
$GNGSA,A,3,81,73,79,80,71,70,,,,,,,1.20,0.71,0.96,2*02
$GNGSA,A,3,19,18,04,01,21,,,,,,,,1.20,0.71,0.96,3*0E
$GNGSA,A,3,36,19,07,22,21,10,,,,,,,1.20,0.71,0.96,4*06
$GNGNS,130845.00,4733.9626836,N,01900.5006564,E,RRRR,25,0.71,190.582,39.430,1.0,0207,V*31
$GNGGA,130845.00,4733.9626836,N,01900.5006564,E,4,12,0.71,190.582,M,39.430,M,1.0,0207*60
$GNGSA,A,3,15,08,07,28,30,13,14,05,,,,,1.20,0.71,0.96,1*0B
$GNGSA,A,3,81,73,79,80,71,70,,,,,,,1.20,0.71,0.96,2*02
$GNGSA,A,3,19,18,04,01,21,,,,,,,,1.20,0.71,0.96,3*0E
$GNGSA,A,3,36,19,07,22,21,10,,,,,,,1.20,0.71,0.96,4*06
$GNGNS,130846.00,4733.9626828,N,01900.5006555,E,RRRR,25,0.71,190.579,39.430,1.0,0207,V*3B
$GNGGA,130846.00,4733.9626828,N,01900.5006555,E,4,12,0.71,190.579,M,39.430,M,1.0,0207*6A
$GNGSA,A,3,15,08,07,28,30,13,14,05,,,,,1.20,0.71,0.96,1*0B
$GNGSA,A,3,81,73,79,80,71,70,,,,,,,1.20,0.71,0.96,2*02
$GNGSA,A,3,19,18,04,01,21,,,,,,,,1.20,0.71,0.96,3*0E
$GNGSA,A,3,36,19,07,22,21,10,,,,,,,1.20,0.71,0.96,4*06
$GNGNS,130847.00,4733.9626834,N,01900.5006572,E,RRRR,25,0.71,190.583,39.430,1.0,0207,V*37
$GNGGA,130847.00,4733.9626834,N,01900.5006572,E,4,12,0.71,190.583,M,39.430,M,1.0,0207*66
$GNGSA,A,3,15,08,07,28,30,13,14,05,,,,,1.20,0.71,0.96,1*0B
$GNGSA,A,3,81,73,79,80,71,70,,,,,,,1.20,0.71,0.96,2*02
$GNGSA,A,3,19,18,04,01,21,,,,,,,,1.20,0.71,0.96,3*0E
$GNGSA,A,3,36,19,07,22,21,10,,,,,,,1.20,0.71,0.96,4*06
$GNGNS,130848.00,4733.9626833,N,01900.5006574,E,RRRR,26,0.71,190.585,39.430,1.0,0207,V*3C
$GNGGA,130848.00,4733.9626833,N,01900.5006574,E,4,12,0.71,190.585,M,39.430,M,1.0,0207*6E
$GNGSA,A,3,15,08,07,28,30,13,14,05,,,,,1.20,0.71,0.96,1*0B
$GNGSA,A,3,81,73,79,80,71,70,,,,,,,1.20,0.71,0.96,2*02
$GNGSA,A,3,19,18,04,01,09,21,,,,,,,1.20,0.71,0.96,3*07
$GNGSA,A,3,36,19,07,22,21,10,,,,,,,1.20,0.71,0.96,4*06
$GNGNS,130849.00,4733.9626829,N,01900.5006573,E,RRRR,26,0.71,190.584,39.430,1.0,0207,V*30
$GNGGA,130849.00,4733.9626829,N,01900.5006573,E,4,12,0.71,190.584,M,39.430,M,1.0,0207*62
$GNGSA,A,3,15,08,07,28,30,13,14,05,,,,,1.20,0.71,0.96,1*0B
$GNGSA,A,3,81,73,79,80,71,70,,,,,,,1.20,0.71,0.96,2*02
$GNGSA,A,3,19,18,04,01,09,21,,,,,,,1.20,0.71,0.96,3*07
$GNGSA,A,3,36,19,07,22,21,10,,,,,,,1.20,0.71,0.96,4*06
$GNGNS,130850.00,4733.9626837,N,01900.5006573,E,RRRR,26,0.69,190.583,39.430,1.0,0207,V*39
$GNGGA,130850.00,4733.9626837,N,01900.5006573,E,4,12,0.69,190.583,M,39.430,M,1.0,0207*6B
$GNGSA,A,3,15,08,07,28,30,13,14,05,,,,,1.15,0.69,0.93,1*01
$GNGSA,A,3,81,73,79,80,71,70,,,,,,,1.15,0.69,0.93,2*08
$GNGSA,A,3,19,18,04,01,09,21,,,,,,,1.15,0.69,0.93,3*0D
$GNGSA,A,3,36,19,07,22,21,10,,,,,,,1.15,0.69,0.93,4*0C
$GNGNS,130851.00,4733.9626831,N,01900.5006570,E,RRRR,26,0.69,190.583,39.430,1.0,0207,V*3D
$GNGGA,130851.00,4733.9626831,N,01900.5006570,E,4,12,0.69,190.583,M,39.430,M,1.0,0207*6F
$GNGSA,A,3,15,08,07,28,30,13,14,05,,,,,1.15,0.69,0.93,1*01
$GNGSA,A,3,81,73,79,80,71,70,,,,,,,1.15,0.69,0.93,2*08
$GNGSA,A,3,19,18,04,01,09,21,,,,,,,1.15,0.69,0.93,3*0D
$GNGSA,A,3,36,19,07,22,21,10,,,,,,,1.15,0.69,0.93,4*0C
$GNGNS,130852.00,4733.9626789,N,01900.5006551,E,RRRR,26,0.69,190.572,39.430,1.0,0207,V*3F
$GNGGA,130852.00,4733.9626789,N,01900.5006551,E,4,12,0.69,190.572,M,39.430,M,1.0,0207*6D
$GNGSA,A,3,15,08,07,28,30,13,14,05,,,,,1.15,0.69,0.93,1*01
$GNGSA,A,3,81,73,79,80,71,70,,,,,,,1.15,0.69,0.93,2*08
$GNGSA,A,3,19,18,04,01,09,21,,,,,,,1.15,0.69,0.93,3*0D
$GNGSA,A,3,36,19,07,22,21,10,,,,,,,1.15,0.69,0.93,4*0C
$GNGNS,130853.00,4733.9626794,N,01900.5006543,E,RRRR,26,0.69,190.572,39.430,1.0,0207,V*31
$GNGGA,130853.00,4733.9626794,N,01900.5006543,E,4,12,0.69,190.572,M,39.430,M,1.0,0207*63
$GNGSA,A,3,15,08,07,28,30,13,14,05,,,,,1.15,0.69,0.93,1*01
$GNGSA,A,3,81,73,79,80,71,70,,,,,,,1.15,0.69,0.93,2*08
$GNGSA,A,3,19,18,04,01,09,21,,,,,,,1.15,0.69,0.93,3*0D
$GNGSA,A,3,36,19,07,22,21,10,,,,,,,1.15,0.69,0.93,4*0C
$GNGNS,130854.00,4733.9626831,N,01900.5006571,E,RRRR,26,0.69,190.578,39.430,1.0,0207,V*3D
$GNGGA,130854.00,4733.9626831,N,01900.5006571,E,4,12,0.69,190.578,M,39.430,M,1.0,0207*6F
$GNGSA,A,3,15,08,07,28,30,13,14,05,,,,,1.15,0.69,0.93,1*01
$GNGSA,A,3,81,73,79,80,71,70,,,,,,,1.15,0.69,0.93,2*08
$GNGSA,A,3,19,18,04,01,09,21,,,,,,,1.15,0.69,0.93,3*0D
$GNGSA,A,3,36,19,07,22,21,10,,,,,,,1.15,0.69,0.93,4*0C
$GNGNS,130855.00,4733.9626833,N,01900.5006557,E,RRRR,26,0.69,190.579,39.430,1.0,0207,V*3B
$GNGGA,130855.00,4733.9626833,N,01900.5006557,E,4,12,0.69,190.579,M,39.430,M,1.0,0207*69
$GNGSA,A,3,15,08,07,28,30,13,14,05,,,,,1.15,0.69,0.93,1*01
$GNGSA,A,3,81,73,79,80,71,70,,,,,,,1.15,0.69,0.93,2*08
$GNGSA,A,3,19,18,04,01,09,21,,,,,,,1.15,0.69,0.93,3*0D
$GNGSA,A,3,36,19,07,22,21,10,,,,,,,1.15,0.69,0.93,4*0C
$GNGNS,130856.00,4733.9626844,N,01900.5006564,E,RRRR,26,0.69,190.580,39.430,1.0,0207,V*3E
$GNGGA,130856.00,4733.9626844,N,01900.5006564,E,4,12,0.69,190.580,M,39.430,M,1.0,0207*6C
$GNGSA,A,3,15,08,07,28,30,13,14,05,,,,,1.15,0.69,0.93,1*01
$GNGSA,A,3,81,73,79,80,71,70,,,,,,,1.15,0.69,0.93,2*08
$GNGSA,A,3,19,18,04,01,09,21,,,,,,,1.15,0.69,0.93,3*0D
$GNGSA,A,3,36,19,07,22,21,10,,,,,,,1.15,0.69,0.93,4*0C
$GNGNS,130857.00,4733.9626845,N,01900.5006573,E,RRRR,26,0.69,190.581,39.430,1.0,0207,V*39
$GNGGA,130857.00,4733.9626845,N,01900.5006573,E,4,12,0.69,190.581,M,39.430,M,1.0,0207*6B
$GNGSA,A,3,15,08,07,28,30,13,14,05,,,,,1.15,0.69,0.93,1*01
$GNGSA,A,3,81,73,79,80,71,70,,,,,,,1.15,0.69,0.93,2*08
$GNGSA,A,3,19,18,04,01,09,21,,,,,,,1.15,0.69,0.93,3*0D
$GNGSA,A,3,36,19,07,22,21,10,,,,,,,1.15,0.69,0.93,4*0C
$GNGNS,130858.00,4733.9626847,N,01900.5006573,E,RRRR,26,0.69,190.579,39.430,1.0,0207,V*33
$GNGGA,130858.00,4733.9626847,N,01900.5006573,E,4,12,0.69,190.579,M,39.430,M,1.0,0207*61
$GNGSA,A,3,15,08,07,28,30,13,14,05,,,,,1.15,0.69,0.93,1*01
$GNGSA,A,3,81,73,79,80,71,70,,,,,,,1.15,0.69,0.93,2*08
$GNGSA,A,3,19,18,04,01,09,21,,,,,,,1.15,0.69,0.93,3*0D
$GNGSA,A,3,36,19,07,22,21,10,,,,,,,1.15,0.69,0.93,4*0C
$GNGNS,130859.00,4733.9626845,N,01900.5006578,E,RRRR,26,0.69,190.578,39.430,1.0,0207,V*3A
$GNGGA,130859.00,4733.9626845,N,01900.5006578,E,4,12,0.69,190.578,M,39.430,M,1.0,0207*68
$GNGSA,A,3,15,08,07,28,30,13,14,05,,,,,1.15,0.69,0.93,1*01
$GNGSA,A,3,81,73,79,80,71,70,,,,,,,1.15,0.69,0.93,2*08
$GNGSA,A,3,19,18,04,01,09,21,,,,,,,1.15,0.69,0.93,3*0D
$GNGSA,A,3,36,19,07,22,21,10,,,,,,,1.15,0.69,0.93,4*0C
$GNGNS,130900.00,4733.9626818,N,01900.5006575,E,RRRR,26,0.69,190.577,39.430,1.0,0207,V*3D
$GNGGA,130900.00,4733.9626818,N,01900.5006575,E,4,12,0.69,190.577,M,39.430,M,1.0,0207*6F
$GNGSA,A,3,15,08,07,28,30,13,14,05,,,,,1.15,0.69,0.93,1*01
$GNGSA,A,3,81,73,79,80,71,70,,,,,,,1.15,0.69,0.93,2*08
$GNGSA,A,3,19,18,04,01,09,21,,,,,,,1.15,0.69,0.93,3*0D
$GNGSA,A,3,36,19,07,22,21,10,,,,,,,1.15,0.69,0.93,4*0C
$GNGNS,130901.00,4733.9626824,N,01900.5006573,E,RRRR,26,0.69,190.577,39.430,1.0,0207,V*35
$GNGGA,130901.00,4733.9626824,N,01900.5006573,E,4,12,0.69,190.577,M,39.430,M,1.0,0207*67
$GNGSA,A,3,15,08,07,28,30,13,14,05,,,,,1.15,0.69,0.93,1*01
$GNGSA,A,3,81,73,79,80,71,70,,,,,,,1.15,0.69,0.93,2*08
$GNGSA,A,3,19,18,04,01,09,21,,,,,,,1.15,0.69,0.93,3*0D
$GNGSA,A,3,36,19,07,22,21,10,,,,,,,1.15,0.69,0.93,4*0C
$GNGNS,130902.00,4733.9626801,N,01900.5006554,E,RRRR,26,0.69,190.572,39.430,1.0,0207,V*31
$GNGGA,130902.00,4733.9626801,N,01900.5006554,E,4,12,0.69,190.572,M,39.430,M,1.0,0207*63
$GNGSA,A,3,15,08,07,28,30,13,14,05,,,,,1.15,0.69,0.93,1*01
$GNGSA,A,3,81,73,79,80,71,70,,,,,,,1.15,0.69,0.93,2*08
$GNGSA,A,3,19,18,04,01,09,21,,,,,,,1.15,0.69,0.93,3*0D
$GNGSA,A,3,36,19,07,22,21,10,,,,,,,1.15,0.69,0.93,4*0C
$GNGNS,130903.00,4733.9626820,N,01900.5006565,E,RRRR,26,0.69,190.578,39.430,1.0,0207,V*3B
$GNGGA,130903.00,4733.9626820,N,01900.5006565,E,4,12,0.69,190.578,M,39.430,M,1.0,0207*69
$GNGSA,A,3,15,08,07,28,30,13,14,05,,,,,1.15,0.69,0.93,1*01
$GNGSA,A,3,81,73,79,80,71,70,,,,,,,1.15,0.69,0.93,2*08
$GNGSA,A,3,19,18,04,01,09,21,,,,,,,1.15,0.69,0.93,3*0D
$GNGSA,A,3,36,19,07,22,21,10,,,,,,,1.15,0.69,0.93,4*0C
$GNGNS,130904.00,4733.9626833,N,01900.5006578,E,RRRR,26,0.69,190.579,39.430,1.0,0207,V*33
$GNGGA,130904.00,4733.9626833,N,01900.5006578,E,4,12,0.69,190.579,M,39.430,M,1.0,0207*61
$GNGSA,A,3,15,08,07,28,30,13,14,05,,,,,1.15,0.69,0.93,1*01
$GNGSA,A,3,81,73,79,80,71,70,,,,,,,1.15,0.69,0.93,2*08
$GNGSA,A,3,19,18,04,01,09,21,,,,,,,1.15,0.69,0.93,3*0D
$GNGSA,A,3,36,19,07,22,21,10,,,,,,,1.15,0.69,0.93,4*0C
$GNGNS,130905.00,4733.9626819,N,01900.5006557,E,RRRR,26,0.69,190.575,39.430,1.0,0207,V*3B
$GNGGA,130905.00,4733.9626819,N,01900.5006557,E,4,12,0.69,190.575,M,39.430,M,1.0,0207*69
$GNGSA,A,3,15,08,07,28,30,13,14,05,,,,,1.15,0.69,0.93,1*01
$GNGSA,A,3,81,73,79,80,71,70,,,,,,,1.15,0.69,0.93,2*08
$GNGSA,A,3,19,18,04,01,09,21,,,,,,,1.15,0.69,0.93,3*0D
$GNGSA,A,3,36,19,07,22,21,10,,,,,,,1.15,0.69,0.93,4*0C
$GNGNS,130906.00,4733.9626798,N,01900.5006563,E,RRRR,26,0.69,190.574,39.430,1.0,0207,V*38
$GNGGA,130906.00,4733.9626798,N,01900.5006563,E,4,12,0.69,190.574,M,39.430,M,1.0,0207*6A
$GNGSA,A,3,15,08,07,28,30,13,14,05,,,,,1.15,0.69,0.93,1*01
$GNGSA,A,3,81,73,79,80,71,70,,,,,,,1.15,0.69,0.93,2*08
$GNGSA,A,3,19,18,04,01,09,21,,,,,,,1.15,0.69,0.93,3*0D
$GNGSA,A,3,36,19,07,22,21,10,,,,,,,1.15,0.69,0.93,4*0C
$GNGNS,130907.00,4733.9626818,N,01900.5006556,E,RRRR,26,0.69,190.575,39.430,1.0,0207,V*39
$GNGGA,130907.00,4733.9626818,N,01900.5006556,E,4,12,0.69,190.575,M,39.430,M,1.0,0207*6B
$GNGSA,A,3,15,08,07,28,30,13,14,05,,,,,1.15,0.69,0.93,1*01
$GNGSA,A,3,81,73,79,80,71,70,,,,,,,1.15,0.69,0.93,2*08
$GNGSA,A,3,19,18,04,01,09,21,,,,,,,1.15,0.69,0.93,3*0D
$GNGSA,A,3,36,19,07,22,21,10,,,,,,,1.15,0.69,0.93,4*0C
$GNGNS,130908.00,4733.9626830,N,01900.5006542,E,RRRR,26,0.69,190.579,39.430,1.0,0207,V*35
$GNGGA,130908.00,4733.9626830,N,01900.5006542,E,4,12,0.69,190.579,M,39.430,M,1.0,0207*67
$GNGSA,A,3,15,08,07,28,30,13,14,05,,,,,1.15,0.69,0.93,1*01
$GNGSA,A,3,81,73,79,80,71,70,,,,,,,1.15,0.69,0.93,2*08
$GNGSA,A,3,19,18,04,01,09,21,,,,,,,1.15,0.69,0.93,3*0D
$GNGSA,A,3,36,19,07,22,21,10,,,,,,,1.15,0.69,0.93,4*0C
$GNGNS,130909.00,4733.9626832,N,01900.5006554,E,RRRR,26,0.69,190.584,39.430,1.0,0207,V*33
$GNGGA,130909.00,4733.9626832,N,01900.5006554,E,4,12,0.69,190.584,M,39.430,M,1.0,0207*61
$GNGSA,A,3,15,08,07,28,30,13,14,05,,,,,1.15,0.69,0.93,1*01
$GNGSA,A,3,81,73,79,80,71,70,,,,,,,1.15,0.69,0.93,2*08
$GNGSA,A,3,19,18,04,01,09,21,,,,,,,1.15,0.69,0.93,3*0D
$GNGSA,A,3,36,19,07,22,21,10,,,,,,,1.15,0.69,0.93,4*0C
$GNGNS,130910.00,4733.9626828,N,01900.5006557,E,RRRR,26,0.69,190.579,39.430,1.0,0207,V*31
$GNGGA,130910.00,4733.9626828,N,01900.5006557,E,4,12,0.69,190.579,M,39.430,M,1.0,0207*63
$GNGSA,A,3,15,08,07,28,30,13,14,05,,,,,1.15,0.69,0.93,1*01
$GNGSA,A,3,81,73,79,80,71,70,,,,,,,1.15,0.69,0.93,2*08
$GNGSA,A,3,19,18,04,01,09,21,,,,,,,1.15,0.69,0.93,3*0D
$GNGSA,A,3,36,19,07,22,21,10,,,,,,,1.15,0.69,0.93,4*0C
$GNGNS,130911.00,4733.9626826,N,01900.5006565,E,RRRR,26,0.69,190.573,39.430,1.0,0207,V*35
$GNGGA,130911.00,4733.9626826,N,01900.5006565,E,4,12,0.69,190.573,M,39.430,M,1.0,0207*67
$GNGSA,A,3,15,08,07,28,30,13,14,05,,,,,1.15,0.69,0.93,1*01
$GNGSA,A,3,81,73,79,80,71,70,,,,,,,1.15,0.69,0.93,2*08
$GNGSA,A,3,19,18,04,01,09,21,,,,,,,1.15,0.69,0.93,3*0D
$GNGSA,A,3,36,19,07,22,21,10,,,,,,,1.15,0.69,0.93,4*0C
$GNGNS,130912.00,4733.9626814,N,01900.5006567,E,RRRR,26,0.69,190.563,39.430,1.0,0207,V*34
$GNGGA,130912.00,4733.9626814,N,01900.5006567,E,4,12,0.69,190.563,M,39.430,M,1.0,0207*66
$GNGSA,A,3,15,08,07,28,30,13,14,05,,,,,1.15,0.69,0.93,1*01
$GNGSA,A,3,81,73,79,80,71,70,,,,,,,1.15,0.69,0.93,2*08
$GNGSA,A,3,19,18,04,01,09,21,,,,,,,1.15,0.69,0.93,3*0D
$GNGSA,A,3,36,19,07,22,21,10,,,,,,,1.15,0.69,0.93,4*0C
$GNGNS,130913.00,4733.9626804,N,01900.5006564,E,RRRR,26,0.69,190.567,39.430,1.0,0207,V*33
$GNGGA,130913.00,4733.9626804,N,01900.5006564,E,4,12,0.69,190.567,M,39.430,M,1.0,0207*61
$GNGSA,A,3,15,08,07,28,30,13,14,05,,,,,1.15,0.69,0.93,1*01
$GNGSA,A,3,81,73,79,80,71,70,,,,,,,1.15,0.69,0.93,2*08
$GNGSA,A,3,19,18,04,01,09,21,,,,,,,1.15,0.69,0.93,3*0D
$GNGSA,A,3,36,19,07,22,21,10,,,,,,,1.15,0.69,0.93,4*0C
$GNGNS,130914.00,4733.9626809,N,01900.5006551,E,RRRR,26,0.69,190.575,39.430,1.0,0207,V*3C
$GNGGA,130914.00,4733.9626809,N,01900.5006551,E,4,12,0.69,190.575,M,39.430,M,1.0,0207*6E
$GNGSA,A,3,15,08,07,28,30,13,14,05,,,,,1.15,0.69,0.93,1*01
$GNGSA,A,3,81,73,79,80,71,70,,,,,,,1.15,0.69,0.93,2*08
$GNGSA,A,3,19,18,04,01,09,21,,,,,,,1.15,0.69,0.93,3*0D
$GNGSA,A,3,36,19,07,22,21,10,,,,,,,1.15,0.69,0.93,4*0C
$GNGNS,130915.00,4733.9626832,N,01900.5006556,E,RRRR,26,0.68,190.579,39.430,1.0,0207,V*3F
$GNGGA,130915.00,4733.9626832,N,01900.5006556,E,4,12,0.68,190.579,M,39.430,M,1.0,0207*6D
$GNGSA,A,3,15,08,07,28,30,13,14,05,,,,,1.15,0.68,0.93,1*00
$GNGSA,A,3,81,73,79,80,71,70,,,,,,,1.15,0.68,0.93,2*09
$GNGSA,A,3,19,18,04,01,09,21,,,,,,,1.15,0.68,0.93,3*0C
$GNGSA,A,3,36,19,07,22,21,10,,,,,,,1.15,0.68,0.93,4*0D
$GNGNS,130916.00,4733.9626829,N,01900.5006561,E,RRRR,26,0.68,190.575,39.430,1.0,0207,V*3E
$GNGGA,130916.00,4733.9626829,N,01900.5006561,E,4,12,0.68,190.575,M,39.430,M,1.0,0207*6C
$GNGSA,A,3,15,08,07,28,30,13,14,05,,,,,1.15,0.68,0.93,1*00
$GNGSA,A,3,81,73,79,80,71,70,,,,,,,1.15,0.68,0.93,2*09
$GNGSA,A,3,19,18,04,01,09,21,,,,,,,1.15,0.68,0.93,3*0C
$GNGSA,A,3,36,19,07,22,21,10,,,,,,,1.15,0.68,0.93,4*0D
$GNGNS,130917.00,4733.9626816,N,01900.5006548,E,RRRR,26,0.68,190.569,39.430,1.0,0207,V*35
$GNGGA,130917.00,4733.9626816,N,01900.5006548,E,4,12,0.68,190.569,M,39.430,M,1.0,0207*67
$GNGSA,A,3,15,08,07,28,30,13,14,05,,,,,1.15,0.68,0.93,1*00
$GNGSA,A,3,81,73,79,80,71,70,,,,,,,1.15,0.68,0.93,2*09
$GNGSA,A,3,19,18,04,01,09,21,,,,,,,1.15,0.68,0.93,3*0C
$GNGSA,A,3,36,19,07,22,21,10,,,,,,,1.15,0.68,0.93,4*0D
$GNGNS,130918.00,4733.9626804,N,01900.5006556,E,RRRR,26,0.68,190.572,39.430,1.0,0207,V*3C
$GNGGA,130918.00,4733.9626804,N,01900.5006556,E,4,12,0.68,190.572,M,39.430,M,1.0,0207*6E
$GNGSA,A,3,15,08,07,28,30,13,14,05,,,,,1.15,0.68,0.93,1*00
$GNGSA,A,3,81,73,79,80,71,70,,,,,,,1.15,0.68,0.93,2*09
$GNGSA,A,3,19,18,04,01,09,21,,,,,,,1.15,0.68,0.93,3*0C
$GNGSA,A,3,36,19,07,22,21,10,,,,,,,1.15,0.68,0.93,4*0D
$GNGNS,130919.00,4733.9626806,N,01900.5006550,E,RRRR,26,0.68,190.570,39.430,1.0,0207,V*3B
$GNGGA,130919.00,4733.9626806,N,01900.5006550,E,4,12,0.68,190.570,M,39.430,M,1.0,0207*69
$GNGSA,A,3,15,08,07,28,30,13,14,05,,,,,1.15,0.68,0.93,1*00
$GNGSA,A,3,81,73,79,80,71,70,,,,,,,1.15,0.68,0.93,2*09
$GNGSA,A,3,19,18,04,01,09,21,,,,,,,1.15,0.68,0.93,3*0C
$GNGSA,A,3,36,19,07,22,21,10,,,,,,,1.15,0.68,0.93,4*0D
$GNGNS,130920.00,4733.9626817,N,01900.5006548,E,RRRR,26,0.68,190.572,39.430,1.0,0207,V*3A
$GNGGA,130920.00,4733.9626817,N,01900.5006548,E,4,12,0.68,190.572,M,39.430,M,1.0,0207*68
$GNGSA,A,3,15,08,07,28,30,13,14,05,,,,,1.15,0.68,0.93,1*00
$GNGSA,A,3,81,73,79,80,71,70,,,,,,,1.15,0.68,0.93,2*09
$GNGSA,A,3,19,18,04,01,09,21,,,,,,,1.15,0.68,0.93,3*0C
$GNGSA,A,3,36,19,07,22,21,10,,,,,,,1.15,0.68,0.93,4*0D
$GNGNS,130921.00,4733.9626833,N,01900.5006556,E,RRRR,26,0.68,190.576,39.430,1.0,0207,V*36
$GNGGA,130921.00,4733.9626833,N,01900.5006556,E,4,12,0.68,190.576,M,39.430,M,1.0,0207*64
$GNGSA,A,3,15,08,07,28,30,13,14,05,,,,,1.15,0.68,0.92,1*01
$GNGSA,A,3,81,73,79,80,71,70,,,,,,,1.15,0.68,0.92,2*08
$GNGSA,A,3,19,18,04,01,09,21,,,,,,,1.15,0.68,0.92,3*0D
$GNGSA,A,3,36,19,07,22,21,10,,,,,,,1.15,0.68,0.92,4*0C
$GNGNS,130922.00,4733.9626835,N,01900.5006567,E,RRRR,26,0.68,190.574,39.430,1.0,0207,V*33
$GNGGA,130922.00,4733.9626835,N,01900.5006567,E,4,12,0.68,190.574,M,39.430,M,1.0,0207*61
$GNGSA,A,3,15,08,07,28,30,13,14,05,,,,,1.15,0.68,0.92,1*01
$GNGSA,A,3,81,73,79,80,71,70,,,,,,,1.15,0.68,0.92,2*08
$GNGSA,A,3,19,18,04,01,09,21,,,,,,,1.15,0.68,0.92,3*0D
$GNGSA,A,3,36,19,07,22,21,10,,,,,,,1.15,0.68,0.92,4*0C
$GNGNS,130923.00,4733.9626814,N,01900.5006551,E,RRRR,26,0.68,190.571,39.430,1.0,0207,V*31
$GNGGA,130923.00,4733.9626814,N,01900.5006551,E,4,12,0.68,190.571,M,39.430,M,1.0,0207*63
$GNGSA,A,3,15,08,07,28,30,13,14,05,,,,,1.15,0.68,0.92,1*01
$GNGSA,A,3,81,73,79,80,71,70,,,,,,,1.15,0.68,0.92,2*08
$GNGSA,A,3,19,18,04,01,09,21,,,,,,,1.15,0.68,0.92,3*0D
$GNGSA,A,3,36,19,07,22,21,10,,,,,,,1.15,0.68,0.92,4*0C
$GNGNS,130924.00,4733.9626819,N,01900.5006530,E,RRRR,26,0.68,190.573,39.430,1.0,0207,V*3E
$GNGGA,130924.00,4733.9626819,N,01900.5006530,E,4,12,0.68,190.573,M,39.430,M,1.0,0207*6C
$GNGSA,A,3,15,08,07,28,30,13,14,05,,,,,1.15,0.68,0.92,1*01
$GNGSA,A,3,81,73,79,80,71,70,,,,,,,1.15,0.68,0.92,2*08
$GNGSA,A,3,19,18,04,01,09,21,,,,,,,1.15,0.68,0.92,3*0D
$GNGSA,A,3,36,19,07,22,21,10,,,,,,,1.15,0.68,0.92,4*0C
$GNGNS,130925.00,4733.9626823,N,01900.5006544,E,RRRR,25,0.68,190.574,39.430,1.0,0207,V*31
$GNGGA,130925.00,4733.9626823,N,01900.5006544,E,4,12,0.68,190.574,M,39.430,M,1.0,0207*60
$GNGSA,A,3,15,08,07,28,30,13,14,05,,,,,1.15,0.68,0.92,1*01
$GNGSA,A,3,81,73,79,80,71,70,,,,,,,1.15,0.68,0.92,2*08
$GNGSA,A,3,19,18,04,01,09,21,,,,,,,1.15,0.68,0.92,3*0D
$GNGSA,A,3,36,19,07,22,21,10,,,,,,,1.15,0.68,0.92,4*0C
$GNGNS,130926.00,4733.9626829,N,01900.5006560,E,RRRR,25,0.68,190.575,39.430,1.0,0207,V*3F
$GNGGA,130926.00,4733.9626829,N,01900.5006560,E,4,12,0.68,190.575,M,39.430,M,1.0,0207*6E
$GNGSA,A,3,15,08,07,28,30,13,14,05,,,,,1.15,0.68,0.92,1*01
$GNGSA,A,3,81,73,79,80,71,70,,,,,,,1.15,0.68,0.92,2*08
$GNGSA,A,3,19,18,04,01,09,21,,,,,,,1.15,0.68,0.92,3*0D
$GNGSA,A,3,36,19,07,22,21,10,,,,,,,1.15,0.68,0.92,4*0C
$GNGNS,130927.00,4733.9626821,N,01900.5006547,E,RRRR,26,0.68,190.570,39.430,1.0,0207,V*35
$GNGGA,130927.00,4733.9626821,N,01900.5006547,E,4,12,0.68,190.570,M,39.430,M,1.0,0207*67
$GNGSA,A,3,15,08,07,28,30,13,14,05,,,,,1.15,0.68,0.92,1*01
$GNGSA,A,3,81,73,79,80,71,70,,,,,,,1.15,0.68,0.92,2*08
$GNGSA,A,3,19,18,04,01,09,21,,,,,,,1.15,0.68,0.92,3*0D
$GNGSA,A,3,36,19,07,22,21,10,,,,,,,1.15,0.68,0.92,4*0C
$GNGNS,130928.00,4733.9626808,N,01900.5006528,E,RRRR,25,0.68,190.569,39.430,1.0,0207,V*33
$GNGGA,130928.00,4733.9626808,N,01900.5006528,E,4,12,0.68,190.569,M,39.430,M,1.0,0207*62
$GNGSA,A,3,15,08,07,28,30,13,14,05,,,,,1.15,0.68,0.92,1*01
$GNGSA,A,3,81,73,79,80,71,70,,,,,,,1.15,0.68,0.92,2*08
$GNGSA,A,3,19,18,04,01,09,21,,,,,,,1.15,0.68,0.92,3*0D
$GNGSA,A,3,36,19,07,22,21,10,,,,,,,1.15,0.68,0.92,4*0C
$GNGNS,130929.00,4733.9626799,N,01900.5006511,E,RRRR,25,0.68,190.568,39.430,1.0,0207,V*3E
$GNGGA,130929.00,4733.9626799,N,01900.5006511,E,4,12,0.68,190.568,M,39.430,M,1.0,0207*6F
$GNGSA,A,3,15,08,07,28,30,13,14,05,,,,,1.15,0.68,0.92,1*01
$GNGSA,A,3,81,73,79,80,71,70,,,,,,,1.15,0.68,0.92,2*08
$GNGSA,A,3,19,18,04,01,09,21,,,,,,,1.15,0.68,0.92,3*0D
$GNGSA,A,3,36,19,07,22,21,10,,,,,,,1.15,0.68,0.92,4*0C
$GNGNS,130930.00,4733.9626794,N,01900.5006534,E,RRRR,26,0.68,190.568,39.430,1.0,0207,V*3F
$GNGGA,130930.00,4733.9626794,N,01900.5006534,E,4,12,0.68,190.568,M,39.430,M,1.0,0207*6D
$GNGSA,A,3,15,08,07,28,30,13,14,05,,,,,1.15,0.68,0.92,1*01
$GNGSA,A,3,81,73,79,80,71,70,,,,,,,1.15,0.68,0.92,2*08
$GNGSA,A,3,19,18,04,01,09,21,,,,,,,1.15,0.68,0.92,3*0D
$GNGSA,A,3,36,19,07,22,21,10,,,,,,,1.15,0.68,0.92,4*0C
$GNGNS,130931.00,4733.9626799,N,01900.5006531,E,RRRR,25,0.68,190.563,39.430,1.0,0207,V*3E
$GNGGA,130931.00,4733.9626799,N,01900.5006531,E,4,12,0.68,190.563,M,39.430,M,1.0,0207*6F
$GNGSA,A,3,15,08,07,28,30,13,14,05,,,,,1.15,0.68,0.92,1*01
$GNGSA,A,3,81,73,79,80,71,70,,,,,,,1.15,0.68,0.92,2*08
$GNGSA,A,3,19,18,04,01,09,21,,,,,,,1.15,0.68,0.92,3*0D
$GNGSA,A,3,36,19,07,22,21,10,,,,,,,1.15,0.68,0.92,4*0C
$GNGNS,130932.00,4733.9626811,N,01900.5006528,E,RRRR,25,0.68,190.569,39.430,1.0,0207,V*30
$GNGGA,130932.00,4733.9626811,N,01900.5006528,E,4,12,0.68,190.569,M,39.430,M,1.0,0207*61
$GNGSA,A,3,15,08,07,28,30,13,14,05,,,,,1.15,0.68,0.92,1*01
$GNGSA,A,3,81,73,79,80,71,70,,,,,,,1.15,0.68,0.92,2*08
$GNGSA,A,3,19,18,04,01,09,21,,,,,,,1.15,0.68,0.92,3*0D
$GNGSA,A,3,36,19,07,22,21,10,,,,,,,1.15,0.68,0.92,4*0C
$GNGNS,130933.00,4733.9626805,N,01900.5006544,E,RRRR,26,0.68,190.571,39.430,1.0,0207,V*34
$GNGGA,130933.00,4733.9626805,N,01900.5006544,E,4,12,0.68,190.571,M,39.430,M,1.0,0207*66
$GNGSA,A,3,15,08,07,28,30,13,14,05,,,,,1.15,0.68,0.92,1*01
$GNGSA,A,3,81,73,79,80,71,70,,,,,,,1.15,0.68,0.92,2*08
$GNGSA,A,3,19,18,04,01,09,21,,,,,,,1.15,0.68,0.92,3*0D
$GNGSA,A,3,36,19,07,22,21,10,,,,,,,1.15,0.68,0.92,4*0C
$GNGNS,130934.00,4733.9626812,N,01900.5006535,E,RRRR,25,0.68,190.570,39.430,1.0,0207,V*31
$GNGGA,130934.00,4733.9626812,N,01900.5006535,E,4,12,0.68,190.570,M,39.430,M,1.0,0207*60
$GNGSA,A,3,15,08,07,28,30,13,14,05,,,,,1.15,0.68,0.92,1*01
$GNGSA,A,3,81,73,79,80,71,70,,,,,,,1.15,0.68,0.92,2*08
$GNGSA,A,3,19,18,04,01,09,21,,,,,,,1.15,0.68,0.92,3*0D
$GNGSA,A,3,36,19,07,22,21,10,,,,,,,1.15,0.68,0.92,4*0C
$GNGNS,130935.00,4733.9626816,N,01900.5006527,E,RRRR,25,0.68,190.573,39.430,1.0,0207,V*34
$GNGGA,130935.00,4733.9626816,N,01900.5006527,E,4,12,0.68,190.573,M,39.430,M,1.0,0207*65
$GNGSA,A,3,15,08,07,28,30,13,14,05,,,,,1.15,0.68,0.92,1*01
$GNGSA,A,3,81,73,79,80,71,70,,,,,,,1.15,0.68,0.92,2*08
$GNGSA,A,3,19,18,04,01,09,21,,,,,,,1.15,0.68,0.92,3*0D
$GNGSA,A,3,36,19,07,22,21,10,,,,,,,1.15,0.68,0.92,4*0C
$GNGNS,130936.00,4733.9626828,N,01900.5006530,E,RRRR,26,0.68,190.577,39.430,1.0,0207,V*3B
$GNGGA,130936.00,4733.9626828,N,01900.5006530,E,4,12,0.68,190.577,M,39.430,M,1.0,0207*69
$GNGSA,A,3,15,08,07,28,30,13,14,05,,,,,1.15,0.68,0.92,1*01
$GNGSA,A,3,81,73,79,80,71,70,,,,,,,1.15,0.68,0.92,2*08
$GNGSA,A,3,19,18,04,01,09,21,,,,,,,1.15,0.68,0.92,3*0D
$GNGSA,A,3,36,19,07,22,21,10,,,,,,,1.15,0.68,0.92,4*0C
$GNGNS,130937.00,4733.9626811,N,01900.5006548,E,RRRR,26,0.68,190.577,39.430,1.0,0207,V*3F
$GNGGA,130937.00,4733.9626811,N,01900.5006548,E,4,12,0.68,190.577,M,39.430,M,1.0,0207*6D
$GNGSA,A,3,15,08,07,28,30,13,14,05,,,,,1.15,0.68,0.92,1*01
$GNGSA,A,3,81,73,79,80,71,70,,,,,,,1.15,0.68,0.92,2*08
$GNGSA,A,3,19,18,04,01,09,21,,,,,,,1.15,0.68,0.92,3*0D
$GNGSA,A,3,36,19,07,22,21,10,,,,,,,1.15,0.68,0.92,4*0C
$GNGNS,130938.00,4733.9626809,N,01900.5006548,E,RRRR,26,0.68,190.571,39.430,1.0,0207,V*3F
$GNGGA,130938.00,4733.9626809,N,01900.5006548,E,4,12,0.68,190.571,M,39.430,M,1.0,0207*6D
$GNGSA,A,3,15,08,07,28,30,13,14,05,,,,,1.15,0.68,0.92,1*01
$GNGSA,A,3,81,73,79,80,71,70,,,,,,,1.15,0.68,0.92,2*08
$GNGSA,A,3,19,18,04,01,09,21,,,,,,,1.15,0.68,0.92,3*0D
$GNGSA,A,3,36,19,07,22,21,10,,,,,,,1.15,0.68,0.92,4*0C
$GNGNS,130939.00,4733.9626802,N,01900.5006536,E,RRRR,26,0.68,190.575,39.430,1.0,0207,V*38
$GNGGA,130939.00,4733.9626802,N,01900.5006536,E,4,12,0.68,190.575,M,39.430,M,1.0,0207*6A
$GNGSA,A,3,15,08,07,28,30,13,14,05,,,,,1.15,0.68,0.92,1*01
$GNGSA,A,3,81,73,79,80,71,70,,,,,,,1.15,0.68,0.92,2*08
$GNGSA,A,3,19,18,04,01,09,21,,,,,,,1.15,0.68,0.92,3*0D
$GNGSA,A,3,36,19,07,22,21,10,,,,,,,1.15,0.68,0.92,4*0C
$GNGNS,130940.00,4733.9626788,N,01900.5006526,E,RRRR,26,0.68,190.572,39.430,1.0,0207,V*3D
$GNGGA,130940.00,4733.9626788,N,01900.5006526,E,4,12,0.68,190.572,M,39.430,M,1.0,0207*6F
$GNGSA,A,3,15,08,07,28,30,13,14,05,,,,,1.15,0.68,0.92,1*01
$GNGSA,A,3,81,73,79,80,71,70,,,,,,,1.15,0.68,0.92,2*08
$GNGSA,A,3,19,18,04,01,09,21,,,,,,,1.15,0.68,0.92,3*0D
$GNGSA,A,3,36,19,07,22,21,10,,,,,,,1.15,0.68,0.92,4*0C
$GNGNS,130941.00,4733.9626800,N,01900.5006538,E,RRRR,26,0.68,190.573,39.430,1.0,0207,V*3D
$GNGGA,130941.00,4733.9626800,N,01900.5006538,E,4,12,0.68,190.573,M,39.430,M,1.0,0207*6F
$GNGSA,A,3,15,08,07,28,30,13,14,05,,,,,1.15,0.68,0.92,1*01
$GNGSA,A,3,81,73,79,80,71,70,,,,,,,1.15,0.68,0.92,2*08
$GNGSA,A,3,19,18,04,01,09,21,,,,,,,1.15,0.68,0.92,3*0D
$GNGSA,A,3,36,19,07,22,21,10,,,,,,,1.15,0.68,0.92,4*0C
$GNGNS,130942.00,4733.9626809,N,01900.5006536,E,RRRR,26,0.68,190.572,39.430,1.0,0207,V*38
$GNGGA,130942.00,4733.9626809,N,01900.5006536,E,4,12,0.68,190.572,M,39.430,M,1.0,0207*6A
$GNGSA,A,3,15,08,07,28,30,13,14,05,,,,,1.15,0.68,0.92,1*01
$GNGSA,A,3,81,73,79,80,71,70,,,,,,,1.15,0.68,0.92,2*08
$GNGSA,A,3,19,18,04,01,09,21,,,,,,,1.15,0.68,0.92,3*0D
$GNGSA,A,3,36,19,07,22,21,10,,,,,,,1.15,0.68,0.92,4*0C
$GNGNS,130943.00,4733.9626776,N,01900.5006566,E,RRRR,26,0.68,190.574,39.430,1.0,0207,V*3D
$GNGGA,130943.00,4733.9626776,N,01900.5006566,E,4,12,0.68,190.574,M,39.430,M,1.0,0207*6F
$GNGSA,A,3,15,08,07,28,30,13,14,05,,,,,1.15,0.68,0.92,1*01
$GNGSA,A,3,81,73,79,80,71,70,,,,,,,1.15,0.68,0.92,2*08
$GNGSA,A,3,19,18,04,01,09,21,,,,,,,1.15,0.68,0.92,3*0D
$GNGSA,A,3,36,19,07,22,21,10,,,,,,,1.15,0.68,0.92,4*0C
$GNGNS,130944.00,4733.9626775,N,01900.5006536,E,RRRR,27,0.67,190.576,39.430,1.0,0207,V*30
$GNGGA,130944.00,4733.9626775,N,01900.5006536,E,4,12,0.67,190.576,M,39.430,M,1.0,0207*63
$GNGSA,A,3,15,08,07,28,30,13,14,05,,,,,1.12,0.67,0.90,1*0B
$GNGSA,A,3,81,73,79,80,71,72,70,,,,,,1.12,0.67,0.90,2*07
$GNGSA,A,3,19,18,04,01,09,21,,,,,,,1.12,0.67,0.90,3*07
$GNGSA,A,3,36,19,07,22,21,10,,,,,,,1.12,0.67,0.90,4*06
$GNGNS,130945.00,4733.9626757,N,01900.5006535,E,RRRR,27,0.67,190.575,39.430,1.0,0207,V*31
$GNGGA,130945.00,4733.9626757,N,01900.5006535,E,4,12,0.67,190.575,M,39.430,M,1.0,0207*62
$GNGSA,A,3,15,08,07,28,30,13,14,05,,,,,1.12,0.67,0.90,1*0B
$GNGSA,A,3,81,73,79,80,71,72,70,,,,,,1.12,0.67,0.90,2*07
$GNGSA,A,3,19,18,04,01,09,21,,,,,,,1.12,0.67,0.90,3*07
$GNGSA,A,3,36,19,07,22,21,10,,,,,,,1.12,0.67,0.90,4*06
$GNGNS,130946.00,4733.9626776,N,01900.5006521,E,RRRR,27,0.67,190.577,39.430,1.0,0207,V*36
$GNGGA,130946.00,4733.9626776,N,01900.5006521,E,4,12,0.67,190.577,M,39.430,M,1.0,0207*65
$GNGSA,A,3,15,08,07,28,30,13,14,05,,,,,1.12,0.67,0.90,1*0B
$GNGSA,A,3,81,73,79,80,71,72,70,,,,,,1.12,0.67,0.90,2*07
$GNGSA,A,3,19,18,04,01,09,21,,,,,,,1.12,0.67,0.90,3*07
$GNGSA,A,3,36,19,07,22,21,10,,,,,,,1.12,0.67,0.90,4*06
$GNGNS,130947.00,4733.9626768,N,01900.5006528,E,RRRR,27,0.67,190.567,39.430,1.0,0207,V*30
$GNGGA,130947.00,4733.9626768,N,01900.5006528,E,4,12,0.67,190.567,M,39.430,M,1.0,0207*63
$GNGSA,A,3,15,08,07,28,30,13,14,05,,,,,1.12,0.67,0.90,1*0B
$GNGSA,A,3,81,73,79,80,71,72,70,,,,,,1.12,0.67,0.90,2*07
$GNGSA,A,3,19,18,04,01,09,21,,,,,,,1.12,0.67,0.90,3*07
$GNGSA,A,3,36,19,07,22,21,10,,,,,,,1.12,0.67,0.90,4*06
$GNGNS,130948.00,4733.9626769,N,01900.5006531,E,RRRR,27,0.67,190.567,39.430,1.0,0207,V*36
$GNGGA,130948.00,4733.9626769,N,01900.5006531,E,4,12,0.67,190.567,M,39.430,M,1.0,0207*65
$GNGSA,A,3,15,08,07,28,30,13,14,05,,,,,1.12,0.67,0.90,1*0B
$GNGSA,A,3,81,73,79,80,71,72,70,,,,,,1.12,0.67,0.90,2*07
$GNGSA,A,3,19,18,04,01,09,21,,,,,,,1.12,0.67,0.90,3*07
$GNGSA,A,3,36,19,07,22,21,10,,,,,,,1.12,0.67,0.90,4*06
$GNGNS,130949.00,4733.9626760,N,01900.5006528,E,RRRR,27,0.67,190.567,39.430,1.0,0207,V*36
$GNGGA,130949.00,4733.9626760,N,01900.5006528,E,4,12,0.67,190.567,M,39.430,M,1.0,0207*65
$GNGSA,A,3,15,08,07,28,30,13,14,05,,,,,1.12,0.67,0.90,1*0B
$GNGSA,A,3,81,73,79,80,71,72,70,,,,,,1.12,0.67,0.90,2*07
$GNGSA,A,3,19,18,04,01,09,21,,,,,,,1.12,0.67,0.90,3*07
$GNGSA,A,3,36,19,07,22,21,10,,,,,,,1.12,0.67,0.90,4*06
$GNGNS,130950.00,4733.9626765,N,01900.5006518,E,RRRR,27,0.67,190.570,39.430,1.0,0207,V*3E
$GNGGA,130950.00,4733.9626765,N,01900.5006518,E,4,12,0.67,190.570,M,39.430,M,1.0,0207*6D
$GNGSA,A,3,15,08,07,28,30,13,14,05,,,,,1.12,0.67,0.90,1*0B
$GNGSA,A,3,81,73,79,80,71,72,70,,,,,,1.12,0.67,0.90,2*07
$GNGSA,A,3,19,18,04,01,09,21,,,,,,,1.12,0.67,0.90,3*07
$GNGSA,A,3,36,19,07,22,21,10,,,,,,,1.12,0.67,0.90,4*06
$GNGNS,130951.00,4733.9626761,N,01900.5006514,E,RRRR,27,0.67,190.571,39.430,1.0,0207,V*36
$GNGGA,130951.00,4733.9626761,N,01900.5006514,E,4,12,0.67,190.571,M,39.430,M,1.0,0207*65
$GNGSA,A,3,15,08,07,28,30,13,14,05,,,,,1.12,0.67,0.90,1*0B
$GNGSA,A,3,81,73,79,80,71,72,70,,,,,,1.12,0.67,0.90,2*07
$GNGSA,A,3,19,18,04,01,09,21,,,,,,,1.12,0.67,0.90,3*07
$GNGSA,A,3,36,19,07,22,21,10,,,,,,,1.12,0.67,0.90,4*06
$GNGNS,130952.00,4733.9626778,N,01900.5006539,E,RRRR,27,0.67,190.575,39.430,1.0,0207,V*36
$GNGGA,130952.00,4733.9626778,N,01900.5006539,E,4,12,0.67,190.575,M,39.430,M,1.0,0207*65
$GNGSA,A,3,15,08,07,28,30,13,14,05,,,,,1.12,0.67,0.90,1*0B
$GNGSA,A,3,81,73,79,80,71,72,70,,,,,,1.12,0.67,0.90,2*07
$GNGSA,A,3,19,18,04,01,09,21,,,,,,,1.12,0.67,0.90,3*07
$GNGSA,A,3,36,19,07,22,21,10,,,,,,,1.12,0.67,0.90,4*06
$GNGNS,130953.00,4733.9626794,N,01900.5006536,E,RRRR,27,0.67,190.576,39.430,1.0,0207,V*39
$GNGGA,130953.00,4733.9626794,N,01900.5006536,E,4,12,0.67,190.576,M,39.430,M,1.0,0207*6A
$GNGSA,A,3,15,08,07,28,30,13,14,05,,,,,1.12,0.67,0.90,1*0B
$GNGSA,A,3,81,73,79,80,71,72,70,,,,,,1.12,0.67,0.90,2*07
$GNGSA,A,3,19,18,04,01,09,21,,,,,,,1.12,0.67,0.90,3*07
$GNGSA,A,3,36,19,07,22,21,10,,,,,,,1.12,0.67,0.90,4*06
$GNGNS,130954.00,4733.9626772,N,01900.5006541,E,RRRR,27,0.67,190.572,39.430,1.0,0207,V*32
$GNGGA,130954.00,4733.9626772,N,01900.5006541,E,4,12,0.67,190.572,M,39.430,M,1.0,0207*61
$GNGSA,A,3,15,08,07,28,30,13,14,05,,,,,1.12,0.67,0.90,1*0B
$GNGSA,A,3,81,73,79,80,71,72,70,,,,,,1.12,0.67,0.90,2*07
$GNGSA,A,3,19,18,04,01,09,21,,,,,,,1.12,0.67,0.90,3*07
$GNGSA,A,3,36,19,07,22,21,10,,,,,,,1.12,0.67,0.90,4*06
$GNGNS,130955.00,4733.9626757,N,01900.5006540,E,RRRR,27,0.67,190.566,39.430,1.0,0207,V*30
$GNGGA,130955.00,4733.9626757,N,01900.5006540,E,4,12,0.67,190.566,M,39.430,M,1.0,0207*63
$GNGSA,A,3,15,08,07,28,30,13,14,05,,,,,1.12,0.67,0.90,1*0B
$GNGSA,A,3,81,73,79,80,71,72,70,,,,,,1.12,0.67,0.90,2*07
$GNGSA,A,3,19,18,04,01,09,21,,,,,,,1.12,0.67,0.90,3*07
$GNGSA,A,3,36,19,07,22,21,10,,,,,,,1.12,0.67,0.90,4*06
$GNGNS,130956.00,4733.9626748,N,01900.5006537,E,RRRR,27,0.67,190.564,39.430,1.0,0207,V*3F
$GNGGA,130956.00,4733.9626748,N,01900.5006537,E,4,12,0.67,190.564,M,39.430,M,1.0,0207*6C
$GNGSA,A,3,15,08,07,28,30,13,14,05,,,,,1.12,0.67,0.90,1*0B
$GNGSA,A,3,81,73,79,80,71,72,70,,,,,,1.12,0.67,0.90,2*07
$GNGSA,A,3,19,18,04,01,09,21,,,,,,,1.12,0.67,0.90,3*07
$GNGSA,A,3,36,19,07,22,21,10,,,,,,,1.12,0.67,0.90,4*06
$GNGNS,130957.00,4733.9626740,N,01900.5006540,E,RRRR,27,0.67,190.569,39.430,1.0,0207,V*3B
$GNGGA,130957.00,4733.9626740,N,01900.5006540,E,4,12,0.67,190.569,M,39.430,M,1.0,0207*68
$GNGSA,A,3,15,08,07,28,30,13,14,05,,,,,1.12,0.67,0.90,1*0B
$GNGSA,A,3,81,73,79,80,71,72,70,,,,,,1.12,0.67,0.90,2*07
$GNGSA,A,3,19,18,04,01,09,21,,,,,,,1.12,0.67,0.90,3*07
$GNGSA,A,3,36,19,07,22,21,10,,,,,,,1.12,0.67,0.90,4*06
$GNGNS,130958.00,4733.9626734,N,01900.5006534,E,RRRR,27,0.67,190.569,39.430,1.0,0207,V*34
$GNGGA,130958.00,4733.9626734,N,01900.5006534,E,4,12,0.67,190.569,M,39.430,M,1.0,0207*67
$GNGSA,A,3,15,08,07,28,30,13,14,05,,,,,1.12,0.67,0.90,1*0B
$GNGSA,A,3,81,73,79,80,71,72,70,,,,,,1.12,0.67,0.90,2*07
$GNGSA,A,3,19,18,04,01,09,21,,,,,,,1.12,0.67,0.90,3*07
$GNGSA,A,3,36,19,07,22,21,10,,,,,,,1.12,0.67,0.90,4*06
$GNGNS,130959.00,4733.9626750,N,01900.5006521,E,RRRR,27,0.67,190.573,39.430,1.0,0207,V*38
$GNGGA,130959.00,4733.9626750,N,01900.5006521,E,4,12,0.67,190.573,M,39.430,M,1.0,0207*6B
$GNGSA,A,3,15,08,07,28,30,13,14,05,,,,,1.12,0.67,0.90,1*0B
$GNGSA,A,3,81,73,79,80,71,72,70,,,,,,1.12,0.67,0.90,2*07
$GNGSA,A,3,19,18,04,01,09,21,,,,,,,1.12,0.67,0.90,3*07
$GNGSA,A,3,36,19,07,22,21,10,,,,,,,1.12,0.67,0.90,4*06
$GNGNS,131000.00,4733.9626751,N,01900.5006518,E,RRRR,27,0.67,190.574,39.430,1.0,0207,V*30
$GNGGA,131000.00,4733.9626751,N,01900.5006518,E,4,12,0.67,190.574,M,39.430,M,1.0,0207*63
$GNGSA,A,3,15,08,07,28,30,13,14,05,,,,,1.12,0.67,0.90,1*0B
$GNGSA,A,3,81,73,79,80,71,72,70,,,,,,1.12,0.67,0.90,2*07
$GNGSA,A,3,19,18,04,01,09,21,,,,,,,1.12,0.67,0.90,3*07
$GNGSA,A,3,36,19,07,22,21,10,,,,,,,1.12,0.67,0.90,4*06
$GNGNS,131001.00,4733.9626736,N,01900.5006549,E,RRRR,27,0.67,190.571,39.430,1.0,0207,V*31
$GNGGA,131001.00,4733.9626736,N,01900.5006549,E,4,12,0.67,190.571,M,39.430,M,1.0,0207*62
$GNGSA,A,3,15,08,07,28,30,13,14,05,,,,,1.12,0.67,0.90,1*0B
$GNGSA,A,3,81,73,79,80,71,72,70,,,,,,1.12,0.67,0.90,2*07
$GNGSA,A,3,19,18,04,01,09,21,,,,,,,1.12,0.67,0.90,3*07
$GNGSA,A,3,36,19,07,22,21,10,,,,,,,1.12,0.67,0.90,4*06
$GNGNS,131002.00,4733.9626745,N,01900.5006555,E,RRRR,27,0.67,190.573,39.430,1.0,0207,V*39
$GNGGA,131002.00,4733.9626745,N,01900.5006555,E,4,12,0.67,190.573,M,39.430,M,1.0,0207*6A
$GNGSA,A,3,15,08,07,28,30,13,14,05,,,,,1.12,0.67,0.90,1*0B
$GNGSA,A,3,81,73,79,80,71,72,70,,,,,,1.12,0.67,0.90,2*07
$GNGSA,A,3,19,18,04,01,09,21,,,,,,,1.12,0.67,0.90,3*07
$GNGSA,A,3,36,19,07,22,21,10,,,,,,,1.12,0.67,0.90,4*06
$GNGNS,131003.00,4733.9626720,N,01900.5006563,E,RRRR,27,0.67,190.569,39.430,1.0,0207,V*35
$GNGGA,131003.00,4733.9626720,N,01900.5006563,E,4,12,0.67,190.569,M,39.430,M,1.0,0207*66
$GNGSA,A,3,15,08,07,28,30,13,14,05,,,,,1.12,0.67,0.90,1*0B
$GNGSA,A,3,81,73,79,80,71,72,70,,,,,,1.12,0.67,0.90,2*07
$GNGSA,A,3,19,18,04,01,09,21,,,,,,,1.12,0.67,0.90,3*07
$GNGSA,A,3,36,19,07,22,21,10,,,,,,,1.12,0.67,0.90,4*06
$GNGNS,131004.00,4733.9626723,N,01900.5006561,E,RRRR,27,0.67,190.567,39.430,1.0,0207,V*3D
$GNGGA,131004.00,4733.9626723,N,01900.5006561,E,4,12,0.67,190.567,M,39.430,M,1.0,0207*6E
$GNGSA,A,3,15,08,07,28,30,13,14,05,,,,,1.12,0.67,0.90,1*0B
$GNGSA,A,3,81,73,79,80,71,72,70,,,,,,1.12,0.67,0.90,2*07
$GNGSA,A,3,19,18,04,01,09,21,,,,,,,1.12,0.67,0.90,3*07
$GNGSA,A,3,36,19,07,22,21,10,,,,,,,1.12,0.67,0.90,4*06
$GNGNS,131005.00,4733.9626717,N,01900.5006553,E,RRRR,27,0.67,190.563,39.430,1.0,0207,V*3E
$GNGGA,131005.00,4733.9626717,N,01900.5006553,E,4,12,0.67,190.563,M,39.430,M,1.0,0207*6D
$GNGSA,A,3,15,08,07,28,30,13,14,05,,,,,1.12,0.67,0.90,1*0B
$GNGSA,A,3,81,73,79,80,71,72,70,,,,,,1.12,0.67,0.90,2*07
$GNGSA,A,3,19,18,04,01,09,21,,,,,,,1.12,0.67,0.90,3*07
$GNGSA,A,3,36,19,07,22,21,10,,,,,,,1.12,0.67,0.90,4*06
$GNGNS,131006.00,4733.9626736,N,01900.5006561,E,RRRR,27,0.67,190.559,39.430,1.0,0207,V*36
$GNGGA,131006.00,4733.9626736,N,01900.5006561,E,4,12,0.67,190.559,M,39.430,M,1.0,0207*65
$GNGSA,A,3,15,08,07,28,30,13,14,05,,,,,1.12,0.67,0.90,1*0B
$GNGSA,A,3,81,73,79,80,71,72,70,,,,,,1.12,0.67,0.90,2*07
$GNGSA,A,3,19,18,04,01,09,21,,,,,,,1.12,0.67,0.90,3*07
$GNGSA,A,3,36,19,07,22,21,10,,,,,,,1.12,0.67,0.90,4*06
$GNGNS,131007.00,4733.9626749,N,01900.5006547,E,RRRR,27,0.67,190.568,39.430,1.0,0207,V*39
$GNGGA,131007.00,4733.9626749,N,01900.5006547,E,4,12,0.67,190.568,M,39.430,M,1.0,0207*6A
$GNGSA,A,3,15,08,07,28,30,13,14,05,,,,,1.12,0.67,0.90,1*0B
$GNGSA,A,3,81,73,79,80,71,72,70,,,,,,1.12,0.67,0.90,2*07
$GNGSA,A,3,19,18,04,01,09,21,,,,,,,1.12,0.67,0.90,3*07
$GNGSA,A,3,36,19,07,22,21,10,,,,,,,1.12,0.67,0.90,4*06
$GNGNS,131008.00,4733.9626746,N,01900.5006546,E,RRRR,27,0.67,190.565,39.430,1.0,0207,V*35
$GNGGA,131008.00,4733.9626746,N,01900.5006546,E,4,12,0.67,190.565,M,39.430,M,1.0,0207*66
$GNGSA,A,3,15,08,07,28,30,13,14,05,,,,,1.12,0.67,0.90,1*0B
$GNGSA,A,3,81,73,79,80,71,72,70,,,,,,1.12,0.67,0.90,2*07
$GNGSA,A,3,19,18,04,01,09,21,,,,,,,1.12,0.67,0.90,3*07
$GNGSA,A,3,36,19,07,22,21,10,,,,,,,1.12,0.67,0.90,4*06
$GNGNS,131009.00,4733.9626749,N,01900.5006532,E,RRRR,27,0.67,190.564,39.430,1.0,0207,V*39
$GNGGA,131009.00,4733.9626749,N,01900.5006532,E,4,12,0.67,190.564,M,39.430,M,1.0,0207*6A
$GNGSA,A,3,15,08,07,28,30,13,14,05,,,,,1.12,0.67,0.90,1*0B
$GNGSA,A,3,81,73,79,80,71,72,70,,,,,,1.12,0.67,0.90,2*07
$GNGSA,A,3,19,18,04,01,09,21,,,,,,,1.12,0.67,0.90,3*07
$GNGSA,A,3,36,19,07,22,21,10,,,,,,,1.12,0.67,0.90,4*06
$GNGNS,131010.00,4733.9626734,N,01900.5006565,E,RRRR,27,0.67,190.569,39.430,1.0,0207,V*34
$GNGGA,131010.00,4733.9626734,N,01900.5006565,E,4,12,0.67,190.569,M,39.430,M,1.0,0207*67
$GNGSA,A,3,15,08,07,28,30,13,14,05,,,,,1.12,0.67,0.90,1*0B
$GNGSA,A,3,81,73,79,80,71,72,70,,,,,,1.12,0.67,0.90,2*07
$GNGSA,A,3,19,18,04,01,09,21,,,,,,,1.12,0.67,0.90,3*07
$GNGSA,A,3,36,19,07,22,21,10,,,,,,,1.12,0.67,0.90,4*06
$GNGNS,131011.00,4733.9626753,N,01900.5006523,E,RRRR,27,0.67,190.573,39.430,1.0,0207,V*3D
$GNGGA,131011.00,4733.9626753,N,01900.5006523,E,4,12,0.67,190.573,M,39.430,M,1.0,0207*6E
$GNGSA,A,3,15,08,07,28,30,13,14,05,,,,,1.12,0.67,0.90,1*0B
$GNGSA,A,3,81,73,79,80,71,72,70,,,,,,1.12,0.67,0.90,2*07
$GNGSA,A,3,19,18,04,01,09,21,,,,,,,1.12,0.67,0.90,3*07
$GNGSA,A,3,36,19,07,22,21,10,,,,,,,1.12,0.67,0.90,4*06
$GNGNS,131012.00,4733.9626731,N,01900.5006551,E,RRRR,27,0.67,190.574,39.430,1.0,0207,V*38
$GNGGA,131012.00,4733.9626731,N,01900.5006551,E,4,12,0.67,190.574,M,39.430,M,1.0,0207*6B
$GNGSA,A,3,15,08,07,28,30,13,14,05,,,,,1.12,0.67,0.90,1*0B
$GNGSA,A,3,81,73,79,80,71,72,70,,,,,,1.12,0.67,0.90,2*07
$GNGSA,A,3,19,18,04,01,09,21,,,,,,,1.12,0.67,0.90,3*07
$GNGSA,A,3,36,19,07,22,21,10,,,,,,,1.12,0.67,0.90,4*06
$GNGNS,131013.00,4733.9626724,N,01900.5006509,E,RRRR,27,0.67,190.572,39.430,1.0,0207,V*36
$GNGGA,131013.00,4733.9626724,N,01900.5006509,E,4,12,0.67,190.572,M,39.430,M,1.0,0207*65
$GNGSA,A,3,15,08,07,28,30,13,14,05,,,,,1.12,0.67,0.90,1*0B
$GNGSA,A,3,81,73,79,80,71,72,70,,,,,,1.12,0.67,0.90,2*07
$GNGSA,A,3,19,18,04,01,09,21,,,,,,,1.12,0.67,0.90,3*07
$GNGSA,A,3,36,19,07,22,21,10,,,,,,,1.12,0.67,0.90,4*06
$GNGNS,131014.00,4733.9626717,N,01900.5006535,E,RRRR,27,0.67,190.567,39.430,1.0,0207,V*3A
$GNGGA,131014.00,4733.9626717,N,01900.5006535,E,4,12,0.67,190.567,M,39.430,M,1.0,0207*69
$GNGSA,A,3,15,08,07,28,30,13,14,05,,,,,1.12,0.67,0.90,1*0B
$GNGSA,A,3,81,73,79,80,71,72,70,,,,,,1.12,0.67,0.90,2*07
$GNGSA,A,3,19,18,04,01,09,21,,,,,,,1.12,0.67,0.90,3*07
$GNGSA,A,3,36,19,07,22,21,10,,,,,,,1.12,0.67,0.90,4*06
$GNGNS,131015.00,4733.9626723,N,01900.5006550,E,RRRR,27,0.67,190.569,39.430,1.0,0207,V*31
$GNGGA,131015.00,4733.9626723,N,01900.5006550,E,4,12,0.67,190.569,M,39.430,M,1.0,0207*62
$GNGSA,A,3,15,08,07,28,30,13,14,05,,,,,1.12,0.67,0.90,1*0B
$GNGSA,A,3,81,73,79,80,71,72,70,,,,,,1.12,0.67,0.90,2*07
$GNGSA,A,3,19,18,04,01,09,21,,,,,,,1.12,0.67,0.90,3*07
$GNGSA,A,3,36,19,07,22,21,10,,,,,,,1.12,0.67,0.90,4*06
